{"type": "FeatureCollection","features": [{"type": "Feature", "geometry": {"type":"Point","coordinates":[3.7195611,51.0313179]}, "properties": {"osm_id": 279877147, "osm_type": "nodes", "tourism": "artwork", "rooms": null, "amenity": null, "name": "Beauté, Force et Sagesse", "beds": null}},{"type": "Feature", "geometry": {"type":"Point","coordinates":[3.7262419,51.0389169]}, "properties": {"osm_id": 3392860009, "osm_type": "nodes", "tourism": null, "rooms": null, "amenity": "fast_food", "name": "Domino's", "beds": null}},{"type": "Feature", "geometry": {"type":"Point","coordinates":[3.7093609,51.0247923]}, "properties": {"osm_id": 4857533585, "osm_type": "nodes", "tourism": null, "rooms": null, "amenity": "fast_food", "name": "Eetoile", "beds": null}},{"type": "Feature", "geometry": {"type":"Point","coordinates":[3.7155128,51.0302811]}, "properties": {"osm_id": 13276470844, "osm_type": "nodes", "tourism": null, "rooms": null, "amenity": "pub", "name": "Den Aflaat", "beds": null}},{"type": "Feature", "geometry": {"type":"Point","coordinates":[3.7027242,51.0224358]}, "properties": {"osm_id": 2519240466, "osm_type": "nodes", "tourism": "hotel", "rooms": null, "amenity": null, "name": "Chalet De Maalte", "beds": null}},{"type": "Feature", "geometry": {"type":"Point","coordinates":[3.710679,51.0607585]}, "properties": {"osm_id": 6983077033, "osm_type": "nodes", "tourism": null, "rooms": null, "amenity": "pub", "name": "Bentos", "beds": null}},{"type": "Feature", "geometry": {"type":"Point","coordinates":[3.7103615,51.0608109]}, "properties": {"osm_id": 6983077035, "osm_type": "nodes", "tourism": null, "rooms": null, "amenity": "restaurant", "name": "Kulba Kabul", "beds": null}},{"type": "Feature", "geometry": {"type":"Point","coordinates":[3.7103829,51.060528]}, "properties": {"osm_id": 6983068048, "osm_type": "nodes", "tourism": null, "rooms": null, "amenity": "restaurant", "name": "Omar", "beds": null}},{"type": "Feature", "geometry": {"type":"Point","coordinates":[3.7100041,51.0566615]}, "properties": {"osm_id": 4338768428, "osm_type": "nodes", "tourism": null, "rooms": null, "amenity": "fast_food", "name": "Golden Friet", "beds": null}},{"type": "Feature", "geometry": {"type":"Point","coordinates":[3.7263043,51.0388117]}, "properties": {"osm_id": 3413034464, "osm_type": "nodes", "tourism": null, "rooms": null, "amenity": "fast_food", "name": "The Ribhouse", "beds": null}},{"type": "Feature", "geometry": {"type":"Point","coordinates":[3.72217,51.0273633]}, "properties": {"osm_id": 12708121938, "osm_type": "nodes", "tourism": null, "rooms": null, "amenity": "restaurant", "name": "KRUNCH", "beds": null}},{"type": "Feature", "geometry": {"type":"Point","coordinates":[3.7413973,51.0364363]}, "properties": {"osm_id": 13593581422, "osm_type": "nodes", "tourism": null, "rooms": null, "amenity": "fast_food", "name": "Kebabbels", "beds": null}},{"type": "Feature", "geometry": {"type":"Point","coordinates":[3.7105229,51.0381141]}, "properties": {"osm_id": 1802848872, "osm_type": "nodes", "tourism": null, "rooms": null, "amenity": "restaurant", "name": "De Gouden Klok", "beds": null}},{"type": "Feature", "geometry": {"type":"Point","coordinates":[3.7257562,51.0544407]}, "properties": {"osm_id": 1212137966, "osm_type": "nodes", "tourism": null, "rooms": null, "amenity": "pub", "name": "den Turk", "beds": null}},{"type": "Feature", "geometry": {"type":"Point","coordinates":[3.7258322,51.0545082]}, "properties": {"osm_id": 1212139210, "osm_type": "nodes", "tourism": null, "rooms": null, "amenity": "restaurant", "name": "Mister Spaghetti", "beds": null}},{"type": "Feature", "geometry": {"type":"Point","coordinates":[3.7275551,51.04612]}, "properties": {"osm_id": 3370589282, "osm_type": "nodes", "tourism": "information", "rooms": null, "amenity": null, "name": null, "beds": null}},{"type": "Feature", "geometry": {"type":"Point","coordinates":[3.7450201,51.044906]}, "properties": {"osm_id": 12995637932, "osm_type": "nodes", "tourism": "artwork", "rooms": null, "amenity": null, "name": "Botanicals", "beds": null}},{"type": "Feature", "geometry": {"type":"Point","coordinates":[3.7333546,51.0492904]}, "properties": {"osm_id": 3394542495, "osm_type": "nodes", "tourism": null, "rooms": null, "amenity": "restaurant", "name": "Basta", "beds": null}},{"type": "Feature", "geometry": {"type":"Point","coordinates":[3.7430441,51.05196]}, "properties": {"osm_id": 10178407254, "osm_type": "nodes", "tourism": "artwork", "rooms": null, "amenity": null, "name": null, "beds": null}},{"type": "Feature", "geometry": {"type":"Point","coordinates":[3.7254928,51.0541322]}, "properties": {"osm_id": 1628067349, "osm_type": "nodes", "tourism": null, "rooms": null, "amenity": "pub", "name": "Belleman", "beds": null}},{"type": "Feature", "geometry": {"type":"Point","coordinates":[3.7210674,51.0537968]}, "properties": {"osm_id": 4273118892, "osm_type": "nodes", "tourism": null, "rooms": null, "amenity": "restaurant", "name": "Umamido", "beds": null}},{"type": "Feature", "geometry": {"type":"Point","coordinates":[3.7184469,51.0552878]}, "properties": {"osm_id": 6064925839, "osm_type": "nodes", "tourism": null, "rooms": null, "amenity": "restaurant", "name": "Phaya", "beds": null}},{"type": "Feature", "geometry": {"type":"Point","coordinates":[3.7247102,51.0428181]}, "properties": {"osm_id": 12969552787, "osm_type": "nodes", "tourism": null, "rooms": null, "amenity": "restaurant", "name": "Cappuccino", "beds": null}},{"type": "Feature", "geometry": {"type":"Point","coordinates":[3.714831,51.0545126]}, "properties": {"osm_id": 6139933288, "osm_type": "nodes", "tourism": null, "rooms": null, "amenity": "restaurant", "name": "Gillis", "beds": null}},{"type": "Feature", "geometry": {"type":"Point","coordinates":[3.72005,51.0521524]}, "properties": {"osm_id": 5734799248, "osm_type": "nodes", "tourism": null, "rooms": null, "amenity": "fast_food", "name": "The Pie Station", "beds": null}},{"type": "Feature", "geometry": {"type":"Point","coordinates":[3.7216898,51.0534908]}, "properties": {"osm_id": 12915450901, "osm_type": "nodes", "tourism": null, "rooms": null, "amenity": "fast_food", "name": "HFC", "beds": null}},{"type": "Feature", "geometry": {"type":"Point","coordinates":[3.70445,51.0592199]}, "properties": {"osm_id": 7198244785, "osm_type": "nodes", "tourism": null, "rooms": null, "amenity": "fast_food", "name": "Sezer", "beds": null}},{"type": "Feature", "geometry": {"type":"Point","coordinates":[3.7045693,51.058581]}, "properties": {"osm_id": 7177702387, "osm_type": "nodes", "tourism": null, "rooms": null, "amenity": "pub", "name": "Tekin", "beds": null}},{"type": "Feature", "geometry": {"type":"Point","coordinates":[3.7065254,51.0592566]}, "properties": {"osm_id": 2451819678, "osm_type": "nodes", "tourism": "hostel", "rooms": null, "amenity": null, "name": "Ecohostel Andromeda", "beds": null}},{"type": "Feature", "geometry": {"type":"Point","coordinates":[3.7105888,51.0373393]}, "properties": {"osm_id": 11489388490, "osm_type": "nodes", "tourism": null, "rooms": null, "amenity": "pub", "name": "Café Bergenhof", "beds": null}},{"type": "Feature", "geometry": {"type":"Point","coordinates":[3.7131134,51.0362645]}, "properties": {"osm_id": 4775222545, "osm_type": "nodes", "tourism": null, "rooms": null, "amenity": "restaurant", "name": "Akuma", "beds": null}},{"type": "Feature", "geometry": {"type":"Point","coordinates":[3.7150984,51.0200407]}, "properties": {"osm_id": 11768874538, "osm_type": "nodes", "tourism": "artwork", "rooms": null, "amenity": null, "name": null, "beds": null}},{"type": "Feature", "geometry": {"type":"Point","coordinates":[3.7308573,51.0422258]}, "properties": {"osm_id": 4391518026, "osm_type": "nodes", "tourism": "artwork", "rooms": null, "amenity": null, "name": null, "beds": null}},{"type": "Feature", "geometry": {"type":"Point","coordinates":[3.7171859,51.0296262]}, "properties": {"osm_id": 7918556367, "osm_type": "nodes", "tourism": null, "rooms": null, "amenity": "bar", "name": "L'attitude", "beds": null}},{"type": "Feature", "geometry": {"type":"Point","coordinates":[3.7163668,51.0842458]}, "properties": {"osm_id": 10289739405, "osm_type": "nodes", "tourism": null, "rooms": null, "amenity": "restaurant", "name": "Sushi Star", "beds": null}},{"type": "Feature", "geometry": {"type":"Point","coordinates":[3.6883719,51.0817058]}, "properties": {"osm_id": 12478756510, "osm_type": "nodes", "tourism": null, "rooms": null, "amenity": "restaurant", "name": "De Gekroonde Hoofden", "beds": null}},{"type": "Feature", "geometry": {"type":"Point","coordinates":[3.7018452,51.0480665]}, "properties": {"osm_id": 13201025930, "osm_type": "nodes", "tourism": null, "rooms": null, "amenity": "bar", "name": "GUSB Sportsbar", "beds": null}},{"type": "Feature", "geometry": {"type":"Point","coordinates":[3.7197092,51.0564685]}, "properties": {"osm_id": 1212148279, "osm_type": "nodes", "tourism": "hotel", "rooms": null, "amenity": null, "name": "Gravensteen", "beds": null}},{"type": "Feature", "geometry": {"type":"Point","coordinates":[3.7016307,51.0585597]}, "properties": {"osm_id": 1997298037, "osm_type": "nodes", "tourism": null, "rooms": null, "amenity": "cafe", "name": "trafiek", "beds": null}},{"type": "Feature", "geometry": {"type":"Point","coordinates":[3.7289563,51.0636048]}, "properties": {"osm_id": 5869420982, "osm_type": "nodes", "tourism": null, "rooms": null, "amenity": "restaurant", "name": "Dish", "beds": null}},{"type": "Feature", "geometry": {"type":"Point","coordinates":[3.7283621,51.0628232]}, "properties": {"osm_id": 6440678291, "osm_type": "nodes", "tourism": null, "rooms": null, "amenity": "fast_food", "name": "Kübra", "beds": null}},{"type": "Feature", "geometry": {"type":"Point","coordinates":[3.7284022,51.0632135]}, "properties": {"osm_id": 12320368733, "osm_type": "nodes", "tourism": null, "rooms": null, "amenity": "cafe", "name": "Çukur", "beds": null}},{"type": "Feature", "geometry": {"type":"Point","coordinates":[3.7041098,51.0623406]}, "properties": {"osm_id": 12663056389, "osm_type": "nodes", "tourism": null, "rooms": null, "amenity": "pub", "name": "Eagle Café", "beds": null}},{"type": "Feature", "geometry": {"type":"Point","coordinates":[3.7247737,51.0555263]}, "properties": {"osm_id": 13056805439, "osm_type": "nodes", "tourism": "artwork", "rooms": null, "amenity": null, "name": null, "beds": null}},{"type": "Feature", "geometry": {"type":"Point","coordinates":[3.7245934,51.0589377]}, "properties": {"osm_id": 13087701120, "osm_type": "nodes", "tourism": null, "rooms": null, "amenity": "bar", "name": "Labyrinth", "beds": null}},{"type": "Feature", "geometry": {"type":"Point","coordinates":[3.7232237,51.0555396]}, "properties": {"osm_id": 10892813716, "osm_type": "nodes", "tourism": null, "rooms": null, "amenity": "restaurant", "name": "Steamy Windows", "beds": null}},{"type": "Feature", "geometry": {"type":"Point","coordinates":[3.7269826,51.0668628]}, "properties": {"osm_id": 6440678389, "osm_type": "nodes", "tourism": null, "rooms": null, "amenity": "fast_food", "name": "Frituur Tolpoort", "beds": null}},{"type": "Feature", "geometry": {"type":"Point","coordinates":[3.7229035,51.0559811]}, "properties": {"osm_id": 11111845674, "osm_type": "nodes", "tourism": null, "rooms": null, "amenity": "restaurant", "name": "Wally", "beds": null}},{"type": "Feature", "geometry": {"type":"Point","coordinates":[3.7257622,51.0605757]}, "properties": {"osm_id": 13038155972, "osm_type": "nodes", "tourism": null, "rooms": null, "amenity": "restaurant", "name": "Köfteci Bayram Grill", "beds": null}},{"type": "Feature", "geometry": {"type":"Point","coordinates":[3.7223293,51.0585842]}, "properties": {"osm_id": 2627642121, "osm_type": "nodes", "tourism": "museum", "rooms": null, "amenity": null, "name": "Caermersklooster", "beds": null}},{"type": "Feature", "geometry": {"type":"Point","coordinates":[3.7224494,51.0556703]}, "properties": {"osm_id": 7036891924, "osm_type": "nodes", "tourism": null, "rooms": null, "amenity": "restaurant", "name": "Würst", "beds": null}},{"type": "Feature", "geometry": {"type":"Point","coordinates":[3.7225362,51.0581556]}, "properties": {"osm_id": 3394070666, "osm_type": "nodes", "tourism": null, "rooms": null, "amenity": "restaurant", "name": "Karel de Stoute", "beds": null}},{"type": "Feature", "geometry": {"type":"Point","coordinates":[3.7220403,51.0549252]}, "properties": {"osm_id": 5132495098, "osm_type": "nodes", "tourism": "artwork", "rooms": null, "amenity": null, "name": "Broche", "beds": null}},{"type": "Feature", "geometry": {"type":"Point","coordinates":[3.727681,51.0417203]}, "properties": {"osm_id": 10812763235, "osm_type": "nodes", "tourism": "information", "rooms": null, "amenity": null, "name": "Tuin Sint-Pietersabdij", "beds": null}},{"type": "Feature", "geometry": {"type":"Point","coordinates":[3.7278901,51.041316]}, "properties": {"osm_id": 10812747480, "osm_type": "nodes", "tourism": "artwork", "rooms": null, "amenity": null, "name": "Prijs van het Vrijzinnig Humanisme", "beds": null}},{"type": "Feature", "geometry": {"type":"Point","coordinates":[3.7257233,51.0393176]}, "properties": {"osm_id": 12702572257, "osm_type": "nodes", "tourism": null, "rooms": null, "amenity": "restaurant", "name": "Seoul South Station", "beds": null}},{"type": "Feature", "geometry": {"type":"Point","coordinates":[3.6818105,51.0396293]}, "properties": {"osm_id": 6825290292, "osm_type": "nodes", "tourism": null, "rooms": null, "amenity": "restaurant", "name": "De Sneppe", "beds": null}},{"type": "Feature", "geometry": {"type":"Point","coordinates":[3.6840449,51.0442371]}, "properties": {"osm_id": 3385272414, "osm_type": "nodes", "tourism": "viewpoint", "rooms": null, "amenity": null, "name": null, "beds": null}},{"type": "Feature", "geometry": {"type":"Point","coordinates":[3.6861418,51.0579137]}, "properties": {"osm_id": 4568991060, "osm_type": "nodes", "tourism": "information", "rooms": null, "amenity": null, "name": null, "beds": null}},{"type": "Feature", "geometry": {"type":"Point","coordinates":[3.6822671,51.0669791]}, "properties": {"osm_id": 8902256191, "osm_type": "nodes", "tourism": "information", "rooms": null, "amenity": null, "name": "Bezoekerscentrum De Bourgoyen", "beds": null}},{"type": "Feature", "geometry": {"type":"Point","coordinates":[3.7267309,51.037401]}, "properties": {"osm_id": 10965264810, "osm_type": "nodes", "tourism": null, "rooms": null, "amenity": "pub", "name": "Villa Volta", "beds": null}},{"type": "Feature", "geometry": {"type":"Point","coordinates":[3.6725537,51.1039573]}, "properties": {"osm_id": 6795870813, "osm_type": "nodes", "tourism": null, "rooms": null, "amenity": "pub", "name": "'t Kruisken", "beds": null}},{"type": "Feature", "geometry": {"type":"Point","coordinates":[3.7219866,51.047215]}, "properties": {"osm_id": 11303546199, "osm_type": "nodes", "tourism": null, "rooms": null, "amenity": "fast_food", "name": "Currychiwa", "beds": null}},{"type": "Feature", "geometry": {"type":"Point","coordinates":[3.7222014,51.045883]}, "properties": {"osm_id": 5247663388, "osm_type": "nodes", "tourism": null, "rooms": null, "amenity": "cafe", "name": "Lisboeta", "beds": null}},{"type": "Feature", "geometry": {"type":"Point","coordinates":[3.7247004,51.0438776]}, "properties": {"osm_id": 1275915813, "osm_type": "nodes", "tourism": null, "rooms": null, "amenity": "restaurant", "name": "Firenze", "beds": null}},{"type": "Feature", "geometry": {"type":"Point","coordinates":[3.7215318,51.0477369]}, "properties": {"osm_id": 11476496998, "osm_type": "nodes", "tourism": null, "rooms": null, "amenity": "restaurant", "name": "Petit Thai", "beds": null}},{"type": "Feature", "geometry": {"type":"Point","coordinates":[3.7216667,51.0464002]}, "properties": {"osm_id": 3675247645, "osm_type": "nodes", "tourism": null, "rooms": null, "amenity": "cafe", "name": "Goya", "beds": null}},{"type": "Feature", "geometry": {"type":"Point","coordinates":[3.71675,51.0427379]}, "properties": {"osm_id": 4421648390, "osm_type": "nodes", "tourism": null, "rooms": null, "amenity": "restaurant", "name": "Karreaux", "beds": null}},{"type": "Feature", "geometry": {"type":"Point","coordinates":[3.7211311,51.0464888]}, "properties": {"osm_id": 1949557489, "osm_type": "nodes", "tourism": null, "rooms": null, "amenity": "pub", "name": "Plan B", "beds": null}},{"type": "Feature", "geometry": {"type":"Point","coordinates":[3.7217751,51.0436193]}, "properties": {"osm_id": 13056769612, "osm_type": "nodes", "tourism": "artwork", "rooms": null, "amenity": null, "name": null, "beds": null}},{"type": "Feature", "geometry": {"type":"Point","coordinates":[3.7184037,51.0426294]}, "properties": {"osm_id": 3299030673, "osm_type": "nodes", "tourism": null, "rooms": null, "amenity": "fast_food", "name": "Chasse Patat", "beds": null}},{"type": "Feature", "geometry": {"type":"Point","coordinates":[3.7298899,51.05413]}, "properties": {"osm_id": 5156850058, "osm_type": "nodes", "tourism": null, "rooms": null, "amenity": "bar", "name": "Cocteau", "beds": null}},{"type": "Feature", "geometry": {"type":"Point","coordinates":[3.7303103,51.0570787]}, "properties": {"osm_id": 5249092192, "osm_type": "nodes", "tourism": null, "rooms": null, "amenity": "restaurant", "name": "Edgar Kaasbar", "beds": null}},{"type": "Feature", "geometry": {"type":"Point","coordinates":[3.731188,51.0486062]}, "properties": {"osm_id": 7994571191, "osm_type": "nodes", "tourism": "artwork", "rooms": null, "amenity": null, "name": null, "beds": null}},{"type": "Feature", "geometry": {"type":"Point","coordinates":[3.7303182,51.0542473]}, "properties": {"osm_id": 7158632586, "osm_type": "nodes", "tourism": null, "rooms": null, "amenity": "restaurant", "name": "Per Bacco", "beds": null}},{"type": "Feature", "geometry": {"type":"Point","coordinates":[3.7296602,51.0504997]}, "properties": {"osm_id": 6138202027, "osm_type": "nodes", "tourism": null, "rooms": null, "amenity": "cafe", "name": "Bargino", "beds": null}},{"type": "Feature", "geometry": {"type":"Point","coordinates":[3.7322322,51.0496017]}, "properties": {"osm_id": 5344860122, "osm_type": "nodes", "tourism": null, "rooms": null, "amenity": "cafe", "name": "Madam Bakster", "beds": null}},{"type": "Feature", "geometry": {"type":"Point","coordinates":[3.7348756,51.0568407]}, "properties": {"osm_id": 9902273001, "osm_type": "nodes", "tourism": null, "rooms": null, "amenity": "restaurant", "name": "Mortier", "beds": null}},{"type": "Feature", "geometry": {"type":"Point","coordinates":[3.7315476,51.0498537]}, "properties": {"osm_id": 13784963917, "osm_type": "nodes", "tourism": null, "rooms": null, "amenity": "cafe", "name": "Splinter", "beds": null}},{"type": "Feature", "geometry": {"type":"Point","coordinates":[3.7173573,51.0401617]}, "properties": {"osm_id": 4764908262, "osm_type": "nodes", "tourism": null, "rooms": null, "amenity": "restaurant", "name": "Golden Ring", "beds": null}},{"type": "Feature", "geometry": {"type":"Point","coordinates":[3.7162586,51.039439]}, "properties": {"osm_id": 11304362889, "osm_type": "nodes", "tourism": "guest_house", "rooms": "5", "amenity": null, "name": "The Hamptons", "beds": null}},{"type": "Feature", "geometry": {"type":"Point","coordinates":[3.7188214,51.0415966]}, "properties": {"osm_id": 11155325211, "osm_type": "nodes", "tourism": null, "rooms": null, "amenity": "bar", "name": "Magique", "beds": null}},{"type": "Feature", "geometry": {"type":"Point","coordinates":[3.6857978,51.0422746]}, "properties": {"osm_id": 8348936047, "osm_type": "nodes", "tourism": "information", "rooms": null, "amenity": null, "name": null, "beds": null}},{"type": "Feature", "geometry": {"type":"Point","coordinates":[3.6870139,51.0361113]}, "properties": {"osm_id": 2368293438, "osm_type": "nodes", "tourism": null, "rooms": null, "amenity": "cafe", "name": "Bistro Taccoen", "beds": null}},{"type": "Feature", "geometry": {"type":"Point","coordinates":[3.7041164,51.0316648]}, "properties": {"osm_id": 9420776631, "osm_type": "nodes", "tourism": null, "rooms": null, "amenity": "restaurant", "name": "Resto C", "beds": null}},{"type": "Feature", "geometry": {"type":"Point","coordinates":[3.7227827,51.0307984]}, "properties": {"osm_id": 12529249616, "osm_type": "nodes", "tourism": "artwork", "rooms": null, "amenity": null, "name": null, "beds": null}},{"type": "Feature", "geometry": {"type":"Point","coordinates":[3.7228883,51.036013]}, "properties": {"osm_id": 10963068372, "osm_type": "nodes", "tourism": "information", "rooms": null, "amenity": null, "name": null, "beds": null}},{"type": "Feature", "geometry": {"type":"Point","coordinates":[3.7228681,51.0355773]}, "properties": {"osm_id": 10963068379, "osm_type": "nodes", "tourism": "information", "rooms": null, "amenity": null, "name": null, "beds": null}},{"type": "Feature", "geometry": {"type":"Point","coordinates":[3.7266558,51.0375714]}, "properties": {"osm_id": 10965674173, "osm_type": "nodes", "tourism": null, "rooms": null, "amenity": "fast_food", "name": "l'Arbre", "beds": null}},{"type": "Feature", "geometry": {"type":"Point","coordinates":[3.7263539,51.0387164]}, "properties": {"osm_id": 11352130045, "osm_type": "nodes", "tourism": null, "rooms": null, "amenity": "fast_food", "name": "Insta Kebap", "beds": null}},{"type": "Feature", "geometry": {"type":"Point","coordinates":[3.7219079,51.0365153]}, "properties": {"osm_id": 2367115534, "osm_type": "nodes", "tourism": "artwork", "rooms": null, "amenity": null, "name": "Emile Claus", "beds": null}},{"type": "Feature", "geometry": {"type":"Point","coordinates":[3.7239671,51.036311]}, "properties": {"osm_id": 6404585898, "osm_type": "nodes", "tourism": null, "rooms": null, "amenity": "fast_food", "name": "Cafetaria Ledeganck", "beds": null}},{"type": "Feature", "geometry": {"type":"Point","coordinates":[3.7271191,51.0488812]}, "properties": {"osm_id": 12373628083, "osm_type": "nodes", "tourism": "artwork", "rooms": null, "amenity": null, "name": "Romain Deconinck", "beds": null}},{"type": "Feature", "geometry": {"type":"Point","coordinates":[3.7286897,51.0515584]}, "properties": {"osm_id": 12334594937, "osm_type": "nodes", "tourism": "information", "rooms": null, "amenity": null, "name": null, "beds": null}},{"type": "Feature", "geometry": {"type":"Point","coordinates":[3.7266128,51.0571325]}, "properties": {"osm_id": 11897518892, "osm_type": "nodes", "tourism": null, "rooms": null, "amenity": "pub", "name": "The Cover", "beds": null}},{"type": "Feature", "geometry": {"type":"Point","coordinates":[3.7281483,51.0493635]}, "properties": {"osm_id": 10267858018, "osm_type": "nodes", "tourism": null, "rooms": null, "amenity": "cafe", "name": "Take Five", "beds": null}},{"type": "Feature", "geometry": {"type":"Point","coordinates":[3.728404,51.0572745]}, "properties": {"osm_id": 12052382373, "osm_type": "nodes", "tourism": null, "rooms": null, "amenity": "restaurant", "name": "Mexcalli", "beds": null}},{"type": "Feature", "geometry": {"type":"Point","coordinates":[3.7266759,51.0569085]}, "properties": {"osm_id": 1187174979, "osm_type": "nodes", "tourism": null, "rooms": null, "amenity": "pub", "name": "'t Vrijdagsgevoel", "beds": null}},{"type": "Feature", "geometry": {"type":"Point","coordinates":[3.7284488,51.055988]}, "properties": {"osm_id": 2591395190, "osm_type": "nodes", "tourism": null, "rooms": null, "amenity": "bar", "name": "Charlatan", "beds": null}},{"type": "Feature", "geometry": {"type":"Point","coordinates":[3.7274134,51.0569695]}, "properties": {"osm_id": 1603623322, "osm_type": "nodes", "tourism": null, "rooms": null, "amenity": "pub", "name": "Café Afsnis", "beds": null}},{"type": "Feature", "geometry": {"type":"Point","coordinates":[3.7261543,51.0561488]}, "properties": {"osm_id": 7158634387, "osm_type": "nodes", "tourism": null, "rooms": null, "amenity": "pub", "name": "Le Bal Infernal", "beds": null}},{"type": "Feature", "geometry": {"type":"Point","coordinates":[3.726478,51.0566963]}, "properties": {"osm_id": 1187175030, "osm_type": "nodes", "tourism": null, "rooms": null, "amenity": "pub", "name": "Bar Lume", "beds": null}},{"type": "Feature", "geometry": {"type":"Point","coordinates":[3.7262629,51.0572271]}, "properties": {"osm_id": 1186961242, "osm_type": "nodes", "tourism": null, "rooms": null, "amenity": "restaurant", "name": "Carpentia", "beds": null}},{"type": "Feature", "geometry": {"type":"Point","coordinates":[3.7269775,51.0486774]}, "properties": {"osm_id": 6919498743, "osm_type": "nodes", "tourism": null, "rooms": null, "amenity": "restaurant", "name": "Umamido Vooruit", "beds": null}},{"type": "Feature", "geometry": {"type":"Point","coordinates":[3.7260126,51.0562141]}, "properties": {"osm_id": 7158634388, "osm_type": "nodes", "tourism": null, "rooms": null, "amenity": "restaurant", "name": "Da Adriano", "beds": null}},{"type": "Feature", "geometry": {"type":"Point","coordinates":[3.7276762,51.047924]}, "properties": {"osm_id": 4914802121, "osm_type": "nodes", "tourism": null, "rooms": null, "amenity": "fast_food", "name": "Bij Mia & Maria", "beds": null}},{"type": "Feature", "geometry": {"type":"Point","coordinates":[3.7279834,51.0559053]}, "properties": {"osm_id": 7771911224, "osm_type": "nodes", "tourism": null, "rooms": null, "amenity": "fast_food", "name": "Frituur Vlasmarkt", "beds": null}},{"type": "Feature", "geometry": {"type":"Point","coordinates":[3.726954,51.0487433]}, "properties": {"osm_id": 12585303235, "osm_type": "nodes", "tourism": null, "rooms": null, "amenity": "fast_food", "name": "Pureto", "beds": null}},{"type": "Feature", "geometry": {"type":"Point","coordinates":[3.7164897,51.0351631]}, "properties": {"osm_id": 11695175546, "osm_type": "nodes", "tourism": null, "rooms": null, "amenity": "cafe", "name": "Geheel De Uwe", "beds": null}},{"type": "Feature", "geometry": {"type":"Point","coordinates":[3.7196035,51.0357162]}, "properties": {"osm_id": 10951506624, "osm_type": "nodes", "tourism": "artwork", "rooms": null, "amenity": null, "name": "Leie en Schelde", "beds": null}},{"type": "Feature", "geometry": {"type":"Point","coordinates":[3.7138096,51.0375962]}, "properties": {"osm_id": 12617744949, "osm_type": "nodes", "tourism": "hotel", "rooms": null, "amenity": null, "name": "Lits de Lo", "beds": null}},{"type": "Feature", "geometry": {"type":"Point","coordinates":[3.7081734,51.0341458]}, "properties": {"osm_id": 10737280004, "osm_type": "nodes", "tourism": null, "rooms": null, "amenity": "fast_food", "name": "Time Out", "beds": null}},{"type": "Feature", "geometry": {"type":"Point","coordinates":[3.7103059,51.0372659]}, "properties": {"osm_id": 1651818968, "osm_type": "nodes", "tourism": null, "rooms": null, "amenity": "restaurant", "name": "Café Parti", "beds": null}},{"type": "Feature", "geometry": {"type":"Point","coordinates":[3.7124499,51.0369311]}, "properties": {"osm_id": 11303527496, "osm_type": "nodes", "tourism": null, "rooms": null, "amenity": "pub", "name": "New Watson", "beds": null}},{"type": "Feature", "geometry": {"type":"Point","coordinates":[3.7081888,51.0338906]}, "properties": {"osm_id": 6486173576, "osm_type": "nodes", "tourism": null, "rooms": null, "amenity": "fast_food", "name": "Petit Pain", "beds": null}},{"type": "Feature", "geometry": {"type":"Point","coordinates":[3.7023027,51.0105045]}, "properties": {"osm_id": 6129054366, "osm_type": "nodes", "tourism": null, "rooms": null, "amenity": "fast_food", "name": "'t Lekkerbekje", "beds": null}},{"type": "Feature", "geometry": {"type":"Point","coordinates":[3.725919,51.018683]}, "properties": {"osm_id": 2678698104, "osm_type": "nodes", "tourism": null, "rooms": null, "amenity": "cafe", "name": "Henri Story", "beds": null}},{"type": "Feature", "geometry": {"type":"Point","coordinates":[3.7338897,51.0294951]}, "properties": {"osm_id": 10095315126, "osm_type": "nodes", "tourism": null, "rooms": null, "amenity": "fast_food", "name": "Ode", "beds": null}},{"type": "Feature", "geometry": {"type":"Point","coordinates":[3.7288371,51.0236706]}, "properties": {"osm_id": 4848066207, "osm_type": "nodes", "tourism": null, "rooms": null, "amenity": "cafe", "name": null, "beds": null}},{"type": "Feature", "geometry": {"type":"Point","coordinates":[3.721918,51.0273395]}, "properties": {"osm_id": 11123595450, "osm_type": "nodes", "tourism": null, "rooms": null, "amenity": "restaurant", "name": "Boekee Garni", "beds": null}},{"type": "Feature", "geometry": {"type":"Point","coordinates":[3.6851235,51.0686098]}, "properties": {"osm_id": 7022352685, "osm_type": "nodes", "tourism": null, "rooms": null, "amenity": "fast_food", "name": "MG's Delicious", "beds": null}},{"type": "Feature", "geometry": {"type":"Point","coordinates":[3.6841595,51.0690983]}, "properties": {"osm_id": 11918785850, "osm_type": "nodes", "tourism": null, "rooms": null, "amenity": "restaurant", "name": "Desi Food", "beds": null}},{"type": "Feature", "geometry": {"type":"Point","coordinates":[3.6921987,51.0688431]}, "properties": {"osm_id": 6939629593, "osm_type": "nodes", "tourism": null, "rooms": null, "amenity": "fast_food", "name": "Poorthuis", "beds": null}},{"type": "Feature", "geometry": {"type":"Point","coordinates":[3.6829065,51.0669928]}, "properties": {"osm_id": 4568991503, "osm_type": "nodes", "tourism": "information", "rooms": null, "amenity": "shelter", "name": null, "beds": null}},{"type": "Feature", "geometry": {"type":"Point","coordinates":[3.7095968,51.088257]}, "properties": {"osm_id": 13517502148, "osm_type": "nodes", "tourism": null, "rooms": null, "amenity": "restaurant", "name": null, "beds": null}},{"type": "Feature", "geometry": {"type":"Point","coordinates":[3.7219512,51.0594005]}, "properties": {"osm_id": 8564149434, "osm_type": "nodes", "tourism": "artwork", "rooms": null, "amenity": null, "name": null, "beds": null}},{"type": "Feature", "geometry": {"type":"Point","coordinates":[3.723859,51.0580497]}, "properties": {"osm_id": 11352130048, "osm_type": "nodes", "tourism": null, "rooms": null, "amenity": "restaurant", "name": "Little Asia", "beds": null}},{"type": "Feature", "geometry": {"type":"Point","coordinates":[3.724274,51.0582519]}, "properties": {"osm_id": 4577957793, "osm_type": "nodes", "tourism": null, "rooms": null, "amenity": "pub", "name": "De Kunst", "beds": null}},{"type": "Feature", "geometry": {"type":"Point","coordinates":[3.7217227,51.0575702]}, "properties": {"osm_id": 2555276332, "osm_type": "nodes", "tourism": null, "rooms": null, "amenity": "restaurant", "name": "La Malcontenta", "beds": null}},{"type": "Feature", "geometry": {"type":"Point","coordinates":[3.7224589,51.0564222]}, "properties": {"osm_id": 1381910682, "osm_type": "nodes", "tourism": null, "rooms": null, "amenity": "pub", "name": "Waterhuis aan de Bierkant", "beds": null}},{"type": "Feature", "geometry": {"type":"Point","coordinates":[3.7228914,51.0542834]}, "properties": {"osm_id": 4985608705, "osm_type": "nodes", "tourism": null, "rooms": null, "amenity": "restaurant", "name": "Giuseppe's", "beds": null}},{"type": "Feature", "geometry": {"type":"Point","coordinates":[3.7217254,51.0554976]}, "properties": {"osm_id": 1532798351, "osm_type": "nodes", "tourism": null, "rooms": null, "amenity": "restaurant", "name": "Godot", "beds": null}},{"type": "Feature", "geometry": {"type":"Point","coordinates":[3.7198952,51.0523006]}, "properties": {"osm_id": 1349508971, "osm_type": "nodes", "tourism": null, "rooms": null, "amenity": "restaurant", "name": "JACQUELINE", "beds": null}},{"type": "Feature", "geometry": {"type":"Point","coordinates":[3.7216336,51.0549247]}, "properties": {"osm_id": 1532795040, "osm_type": "nodes", "tourism": null, "rooms": null, "amenity": "restaurant", "name": "Fait Divers", "beds": null}},{"type": "Feature", "geometry": {"type":"Point","coordinates":[3.7231062,51.0576819]}, "properties": {"osm_id": 12738600479, "osm_type": "nodes", "tourism": null, "rooms": null, "amenity": "cafe", "name": "Museumcafé", "beds": null}},{"type": "Feature", "geometry": {"type":"Point","coordinates":[3.7238831,51.0570509]}, "properties": {"osm_id": 4229989138, "osm_type": "nodes", "tourism": null, "rooms": null, "amenity": "fast_food", "name": "Panos", "beds": null}},{"type": "Feature", "geometry": {"type":"Point","coordinates":[3.721227,51.0537928]}, "properties": {"osm_id": 602681356, "osm_type": "nodes", "tourism": null, "rooms": null, "amenity": "pub", "name": "The Celtic Towers", "beds": null}},{"type": "Feature", "geometry": {"type":"Point","coordinates":[3.7240802,51.0534878]}, "properties": {"osm_id": 3401869282, "osm_type": "nodes", "tourism": null, "rooms": null, "amenity": "cafe", "name": "Caffè Rosario", "beds": null}},{"type": "Feature", "geometry": {"type":"Point","coordinates":[3.7195245,51.0528554]}, "properties": {"osm_id": 12582012049, "osm_type": "nodes", "tourism": "attraction", "rooms": null, "amenity": null, "name": "Waffles 'n Beer", "beds": null}},{"type": "Feature", "geometry": {"type":"Point","coordinates":[3.7168875,51.053551]}, "properties": {"osm_id": 12568289315, "osm_type": "nodes", "tourism": null, "rooms": null, "amenity": "cafe", "name": "UniQplanet", "beds": null}},{"type": "Feature", "geometry": {"type":"Point","coordinates":[3.7252931,51.0532755]}, "properties": {"osm_id": 12431431549, "osm_type": "nodes", "tourism": null, "rooms": null, "amenity": "fast_food", "name": "Fuego Lento", "beds": null}},{"type": "Feature", "geometry": {"type":"Point","coordinates":[3.7252412,51.0532901]}, "properties": {"osm_id": 10885912444, "osm_type": "nodes", "tourism": null, "rooms": null, "amenity": "restaurant", "name": "O'yo", "beds": null}},{"type": "Feature", "geometry": {"type":"Point","coordinates":[3.7239754,51.0578421]}, "properties": {"osm_id": 1914073982, "osm_type": "nodes", "tourism": null, "rooms": null, "amenity": "bar", "name": "Zoo", "beds": null}},{"type": "Feature", "geometry": {"type":"Point","coordinates":[3.7243453,51.0587194]}, "properties": {"osm_id": 2625520422, "osm_type": "nodes", "tourism": null, "rooms": null, "amenity": "restaurant", "name": "'t Koningshuis", "beds": null}},{"type": "Feature", "geometry": {"type":"Point","coordinates":[3.7212016,51.0562954]}, "properties": {"osm_id": 1614676351, "osm_type": "nodes", "tourism": "information", "rooms": null, "amenity": null, "name": "Infokantoor Toerisme Gent", "beds": null}},{"type": "Feature", "geometry": {"type":"Point","coordinates":[3.717096,51.0543306]}, "properties": {"osm_id": 3842499429, "osm_type": "nodes", "tourism": null, "rooms": null, "amenity": "restaurant", "name": "In Bocca 'Lupo", "beds": null}},{"type": "Feature", "geometry": {"type":"Point","coordinates":[3.7247726,51.0549742]}, "properties": {"osm_id": 11592996628, "osm_type": "nodes", "tourism": null, "rooms": null, "amenity": "bar", "name": "Woody's", "beds": null}},{"type": "Feature", "geometry": {"type":"Point","coordinates":[3.7228994,51.0528022]}, "properties": {"osm_id": 11352130035, "osm_type": "nodes", "tourism": null, "rooms": null, "amenity": "restaurant", "name": "Poké House", "beds": null}},{"type": "Feature", "geometry": {"type":"Point","coordinates":[3.7195835,51.0500416]}, "properties": {"osm_id": 2712612538, "osm_type": "nodes", "tourism": null, "rooms": null, "amenity": "pub", "name": "Patrick Foleys Irish Bar & Restaurant", "beds": null}},{"type": "Feature", "geometry": {"type":"Point","coordinates":[3.7205586,51.0511721]}, "properties": {"osm_id": 7994410956, "osm_type": "nodes", "tourism": "artwork", "rooms": null, "amenity": null, "name": "Ragnarok", "beds": null}},{"type": "Feature", "geometry": {"type":"Point","coordinates":[3.723836,51.0551205]}, "properties": {"osm_id": 7994724836, "osm_type": "nodes", "tourism": "artwork", "rooms": null, "amenity": null, "name": null, "beds": null}},{"type": "Feature", "geometry": {"type":"Point","coordinates":[3.7245993,51.0556583]}, "properties": {"osm_id": 7994724858, "osm_type": "nodes", "tourism": "artwork", "rooms": null, "amenity": null, "name": null, "beds": null}},{"type": "Feature", "geometry": {"type":"Point","coordinates":[3.724727,51.0558599]}, "properties": {"osm_id": 7994724868, "osm_type": "nodes", "tourism": "artwork", "rooms": null, "amenity": null, "name": null, "beds": null}},{"type": "Feature", "geometry": {"type":"Point","coordinates":[3.7247304,51.0558638]}, "properties": {"osm_id": 7994724869, "osm_type": "nodes", "tourism": "artwork", "rooms": null, "amenity": null, "name": null, "beds": null}},{"type": "Feature", "geometry": {"type":"Point","coordinates":[3.7234234,51.0566437]}, "properties": {"osm_id": 7142820248, "osm_type": "nodes", "tourism": null, "rooms": null, "amenity": "fast_food", "name": "Dunkin'", "beds": null}},{"type": "Feature", "geometry": {"type":"Point","coordinates":[3.7222522,51.0545167]}, "properties": {"osm_id": 602681364, "osm_type": "nodes", "tourism": null, "rooms": null, "amenity": "restaurant", "name": "Poule & Poulette", "beds": null}},{"type": "Feature", "geometry": {"type":"Point","coordinates":[3.7240249,51.0577582]}, "properties": {"osm_id": 1212142182, "osm_type": "nodes", "tourism": null, "rooms": null, "amenity": "cafe", "name": "Soup Lounge", "beds": null}},{"type": "Feature", "geometry": {"type":"Point","coordinates":[3.7251846,51.0566101]}, "properties": {"osm_id": 1187211188, "osm_type": "nodes", "tourism": null, "rooms": null, "amenity": "restaurant", "name": "5th Gök", "beds": null}},{"type": "Feature", "geometry": {"type":"Point","coordinates":[3.7161285,51.0502707]}, "properties": {"osm_id": 11596286257, "osm_type": "nodes", "tourism": null, "rooms": null, "amenity": "restaurant", "name": "Joan", "beds": null}},{"type": "Feature", "geometry": {"type":"Point","coordinates":[3.7233846,51.0579392]}, "properties": {"osm_id": 3394070670, "osm_type": "nodes", "tourism": null, "rooms": null, "amenity": "restaurant", "name": "'t Klaverblad", "beds": null}},{"type": "Feature", "geometry": {"type":"Point","coordinates":[3.7241156,51.0573042]}, "properties": {"osm_id": 506206323, "osm_type": "nodes", "tourism": "attraction", "rooms": null, "amenity": null, "name": "Dulle Griet", "beds": null}},{"type": "Feature", "geometry": {"type":"Point","coordinates":[3.7235054,51.0544137]}, "properties": {"osm_id": 11156864221, "osm_type": "nodes", "tourism": null, "rooms": null, "amenity": "bar", "name": "Piu Di Piu", "beds": null}},{"type": "Feature", "geometry": {"type":"Point","coordinates":[3.7170268,51.0589303]}, "properties": {"osm_id": 10815352038, "osm_type": "nodes", "tourism": "artwork", "rooms": null, "amenity": null, "name": "Het Breisterke", "beds": null}},{"type": "Feature", "geometry": {"type":"Point","coordinates":[3.7203218,51.0558689]}, "properties": {"osm_id": 1616705146, "osm_type": "nodes", "tourism": null, "rooms": null, "amenity": "restaurant", "name": "Jaffa", "beds": null}},{"type": "Feature", "geometry": {"type":"Point","coordinates":[3.7232097,51.0508381]}, "properties": {"osm_id": 3622992095, "osm_type": "nodes", "tourism": "hostel", "rooms": null, "amenity": null, "name": "13:00 o'clock Hostel", "beds": null}},{"type": "Feature", "geometry": {"type":"Point","coordinates":[3.7246883,51.0573927]}, "properties": {"osm_id": 12531334466, "osm_type": "nodes", "tourism": null, "rooms": null, "amenity": "cafe", "name": "SOHO", "beds": null}},{"type": "Feature", "geometry": {"type":"Point","coordinates":[3.7220754,51.0557118]}, "properties": {"osm_id": 13273886628, "osm_type": "nodes", "tourism": null, "rooms": null, "amenity": "restaurant", "name": "Au bon vivant", "beds": null}},{"type": "Feature", "geometry": {"type":"Point","coordinates":[3.7208713,51.0582727]}, "properties": {"osm_id": 9740821856, "osm_type": "nodes", "tourism": null, "rooms": null, "amenity": "restaurant", "name": "Plant A Pizza", "beds": null}},{"type": "Feature", "geometry": {"type":"Point","coordinates":[3.7185617,51.0642236]}, "properties": {"osm_id": 12628238501, "osm_type": "nodes", "tourism": null, "rooms": null, "amenity": "restaurant", "name": "één twee vijf", "beds": null}},{"type": "Feature", "geometry": {"type":"Point","coordinates":[3.7239759,51.0745272]}, "properties": {"osm_id": 10779807668, "osm_type": "nodes", "tourism": "artwork", "rooms": null, "amenity": null, "name": null, "beds": null}},{"type": "Feature", "geometry": {"type":"Point","coordinates":[3.7131746,51.0261101]}, "properties": {"osm_id": 3752879366, "osm_type": "nodes", "tourism": null, "rooms": null, "amenity": "restaurant", "name": "Studentenresto S5", "beds": null}},{"type": "Feature", "geometry": {"type":"Point","coordinates":[3.713046,51.0205933]}, "properties": {"osm_id": 11768898666, "osm_type": "nodes", "tourism": "artwork", "rooms": null, "amenity": null, "name": null, "beds": null}},{"type": "Feature", "geometry": {"type":"Point","coordinates":[3.7175873,51.0205021]}, "properties": {"osm_id": 11873970166, "osm_type": "nodes", "tourism": "artwork", "rooms": null, "amenity": null, "name": null, "beds": null}},{"type": "Feature", "geometry": {"type":"Point","coordinates":[3.7129693,51.0309541]}, "properties": {"osm_id": 12905761765, "osm_type": "nodes", "tourism": null, "rooms": null, "amenity": "pub", "name": "New Castle", "beds": null}},{"type": "Feature", "geometry": {"type":"Point","coordinates":[3.7231628,51.038836]}, "properties": {"osm_id": 9272082537, "osm_type": "nodes", "tourism": "information", "rooms": null, "amenity": null, "name": "Citadelpark", "beds": null}},{"type": "Feature", "geometry": {"type":"Point","coordinates":[3.7266605,51.0498869]}, "properties": {"osm_id": 12899845207, "osm_type": "nodes", "tourism": null, "rooms": null, "amenity": "fast_food", "name": "Terra", "beds": null}},{"type": "Feature", "geometry": {"type":"Point","coordinates":[3.722461,51.0302756]}, "properties": {"osm_id": 2275104998, "osm_type": "nodes", "tourism": null, "rooms": null, "amenity": "restaurant", "name": "Sole d'Italia", "beds": null}},{"type": "Feature", "geometry": {"type":"Point","coordinates":[3.7257881,51.0563579]}, "properties": {"osm_id": 1187193552, "osm_type": "nodes", "tourism": null, "rooms": null, "amenity": "restaurant", "name": "Ode Brasserie", "beds": null}},{"type": "Feature", "geometry": {"type":"Point","coordinates":[3.7200107,51.0563899]}, "properties": {"osm_id": 1616705129, "osm_type": "nodes", "tourism": null, "rooms": null, "amenity": "restaurant", "name": "Maison Elza", "beds": null}},{"type": "Feature", "geometry": {"type":"Point","coordinates":[3.7258928,51.0609824]}, "properties": {"osm_id": 4720245796, "osm_type": "nodes", "tourism": null, "rooms": null, "amenity": "restaurant", "name": "Gök 2", "beds": null}},{"type": "Feature", "geometry": {"type":"Point","coordinates":[3.7206542,51.0524171]}, "properties": {"osm_id": 5394376122, "osm_type": "nodes", "tourism": "artwork", "rooms": null, "amenity": null, "name": "De Blauwe Vogels", "beds": null}},{"type": "Feature", "geometry": {"type":"Point","coordinates":[3.723129,51.0501208]}, "properties": {"osm_id": 5394381432, "osm_type": "nodes", "tourism": "artwork", "rooms": null, "amenity": null, "name": "Mystic Leaves", "beds": null}},{"type": "Feature", "geometry": {"type":"Point","coordinates":[3.7141842,51.0580372]}, "properties": {"osm_id": 4433251547, "osm_type": "nodes", "tourism": "guest_house", "rooms": "4", "amenity": null, "name": "Atlas B&B", "beds": null}},{"type": "Feature", "geometry": {"type":"Point","coordinates":[3.7113296,51.0600061]}, "properties": {"osm_id": 6983077031, "osm_type": "nodes", "tourism": null, "rooms": null, "amenity": "fast_food", "name": "Ankietie", "beds": null}},{"type": "Feature", "geometry": {"type":"Point","coordinates":[3.710032,51.0716971]}, "properties": {"osm_id": 13055223101, "osm_type": "nodes", "tourism": null, "rooms": null, "amenity": "restaurant", "name": "Ottoman Grillhouse", "beds": null}},{"type": "Feature", "geometry": {"type":"Point","coordinates":[3.7415094,51.05882]}, "properties": {"osm_id": 12798223055, "osm_type": "nodes", "tourism": null, "rooms": null, "amenity": "restaurant", "name": "Timelab Eatery", "beds": null}},{"type": "Feature", "geometry": {"type":"Point","coordinates":[3.7366976,51.0582355]}, "properties": {"osm_id": 12559273299, "osm_type": "nodes", "tourism": "artwork", "rooms": null, "amenity": null, "name": null, "beds": null}},{"type": "Feature", "geometry": {"type":"Point","coordinates":[3.7371954,51.0565685]}, "properties": {"osm_id": 12387000495, "osm_type": "nodes", "tourism": null, "rooms": null, "amenity": "cafe", "name": "Coconne", "beds": null}},{"type": "Feature", "geometry": {"type":"Point","coordinates":[3.7414919,51.0567042]}, "properties": {"osm_id": 6942598292, "osm_type": "nodes", "tourism": null, "rooms": null, "amenity": "fast_food", "name": "Gül", "beds": null}},{"type": "Feature", "geometry": {"type":"Point","coordinates":[3.7390389,51.0494793]}, "properties": {"osm_id": 11398726824, "osm_type": "nodes", "tourism": null, "rooms": null, "amenity": "restaurant", "name": "Dali Restaurant", "beds": null}},{"type": "Feature", "geometry": {"type":"Point","coordinates":[3.7350839,51.0503033]}, "properties": {"osm_id": 3752509085, "osm_type": "nodes", "tourism": "hostel", "rooms": null, "amenity": null, "name": "Kaba Hostel", "beds": null}},{"type": "Feature", "geometry": {"type":"Point","coordinates":[3.7032951,51.0460141]}, "properties": {"osm_id": 4565846936, "osm_type": "nodes", "tourism": null, "rooms": null, "amenity": "restaurant", "name": "Ponton", "beds": null}},{"type": "Feature", "geometry": {"type":"Point","coordinates":[3.7062107,51.0310202]}, "properties": {"osm_id": 12155966682, "osm_type": "nodes", "tourism": null, "rooms": null, "amenity": "fast_food", "name": "Gyros Gent", "beds": null}},{"type": "Feature", "geometry": {"type":"Point","coordinates":[3.7136557,51.0506282]}, "properties": {"osm_id": 12954146701, "osm_type": "nodes", "tourism": null, "rooms": null, "amenity": "fast_food", "name": "Hero", "beds": null}},{"type": "Feature", "geometry": {"type":"Point","coordinates":[3.7260624,51.0438541]}, "properties": {"osm_id": 12384862187, "osm_type": "nodes", "tourism": null, "rooms": null, "amenity": "fast_food", "name": "Mister Smos", "beds": null}},{"type": "Feature", "geometry": {"type":"Point","coordinates":[3.7324177,51.0440849]}, "properties": {"osm_id": 7993547796, "osm_type": "nodes", "tourism": "information", "rooms": null, "amenity": null, "name": "Koning Albert I park", "beds": null}},{"type": "Feature", "geometry": {"type":"Point","coordinates":[3.7350636,51.0463108]}, "properties": {"osm_id": 10814951966, "osm_type": "nodes", "tourism": "information", "rooms": null, "amenity": null, "name": "Begijnhof Onze-Lieve-Vrouw ter Hoyen - Le béguinage de Notre-Dame ter Hoyen", "beds": null}},{"type": "Feature", "geometry": {"type":"Point","coordinates":[3.7346305,51.0462701]}, "properties": {"osm_id": 10814951934, "osm_type": "nodes", "tourism": "information", "rooms": null, "amenity": null, "name": null, "beds": null}},{"type": "Feature", "geometry": {"type":"Point","coordinates":[3.7287884,51.0414627]}, "properties": {"osm_id": 1627612971, "osm_type": "nodes", "tourism": null, "rooms": null, "amenity": "pub", "name": "De Geus van Gent", "beds": null}},{"type": "Feature", "geometry": {"type":"Point","coordinates":[3.7265221,51.0383056]}, "properties": {"osm_id": 1462321981, "osm_type": "nodes", "tourism": null, "rooms": null, "amenity": "fast_food", "name": "Bocca", "beds": null}},{"type": "Feature", "geometry": {"type":"Point","coordinates":[3.7267994,51.0373593]}, "properties": {"osm_id": 12702505074, "osm_type": "nodes", "tourism": null, "rooms": null, "amenity": "restaurant", "name": "meat district", "beds": null}},{"type": "Feature", "geometry": {"type":"Point","coordinates":[3.726424,51.0371289]}, "properties": {"osm_id": 12650624985, "osm_type": "nodes", "tourism": null, "rooms": null, "amenity": "cafe", "name": "Symphony", "beds": null}},{"type": "Feature", "geometry": {"type":"Point","coordinates":[3.7284126,51.0382202]}, "properties": {"osm_id": 12681994060, "osm_type": "nodes", "tourism": null, "rooms": null, "amenity": "cafe", "name": "Osti's Lobby&Coffee", "beds": null}},{"type": "Feature", "geometry": {"type":"Point","coordinates":[3.7271344,51.0398473]}, "properties": {"osm_id": 12639298034, "osm_type": "nodes", "tourism": null, "rooms": null, "amenity": "pub", "name": "ComeTogether", "beds": null}},{"type": "Feature", "geometry": {"type":"Point","coordinates":[3.7262724,51.0357829]}, "properties": {"osm_id": 2275116533, "osm_type": "nodes", "tourism": null, "rooms": null, "amenity": "fast_food", "name": "Tasty", "beds": null}},{"type": "Feature", "geometry": {"type":"Point","coordinates":[3.7265466,51.0380198]}, "properties": {"osm_id": 11047205650, "osm_type": "nodes", "tourism": null, "rooms": null, "amenity": "restaurant", "name": "Nepal Delight", "beds": null}},{"type": "Feature", "geometry": {"type":"Point","coordinates":[3.7354583,51.0176451]}, "properties": {"osm_id": 12741969454, "osm_type": "nodes", "tourism": null, "rooms": null, "amenity": "restaurant", "name": "Mr. Sato", "beds": null}},{"type": "Feature", "geometry": {"type":"Point","coordinates":[3.7070945,51.0576022]}, "properties": {"osm_id": 9809237979, "osm_type": "nodes", "tourism": null, "rooms": null, "amenity": "fast_food", "name": "Pizza Delta", "beds": null}},{"type": "Feature", "geometry": {"type":"Point","coordinates":[3.7298918,51.0691637]}, "properties": {"osm_id": 10940010347, "osm_type": "nodes", "tourism": null, "rooms": null, "amenity": "fast_food", "name": "Pizza Heart", "beds": null}},{"type": "Feature", "geometry": {"type":"Point","coordinates":[3.7324454,51.0665633]}, "properties": {"osm_id": 12339659043, "osm_type": "nodes", "tourism": null, "rooms": null, "amenity": "restaurant", "name": "Content", "beds": null}},{"type": "Feature", "geometry": {"type":"Point","coordinates":[3.7278472,51.0610035]}, "properties": {"osm_id": 2210024898, "osm_type": "nodes", "tourism": null, "rooms": null, "amenity": "restaurant", "name": "Eetkaffee Multatuli", "beds": null}},{"type": "Feature", "geometry": {"type":"Point","coordinates":[3.7336175,51.0596479]}, "properties": {"osm_id": 10776005810, "osm_type": "nodes", "tourism": "artwork", "rooms": null, "amenity": null, "name": "After All, Strangers Again", "beds": null}},{"type": "Feature", "geometry": {"type":"Point","coordinates":[3.7260502,51.064213]}, "properties": {"osm_id": 12352086998, "osm_type": "nodes", "tourism": null, "rooms": null, "amenity": "restaurant", "name": "Bizim Inegöl Köfte", "beds": null}},{"type": "Feature", "geometry": {"type":"Point","coordinates":[3.7324305,51.0661405]}, "properties": {"osm_id": 5651108321, "osm_type": "nodes", "tourism": null, "rooms": null, "amenity": "cafe", "name": "IzyCoffee", "beds": null}},{"type": "Feature", "geometry": {"type":"Point","coordinates":[3.7388088,51.0597292]}, "properties": {"osm_id": 10864308639, "osm_type": "nodes", "tourism": "artwork", "rooms": null, "amenity": null, "name": null, "beds": null}},{"type": "Feature", "geometry": {"type":"Point","coordinates":[3.7318229,51.0615406]}, "properties": {"osm_id": 12024357452, "osm_type": "nodes", "tourism": "guest_house", "rooms": null, "amenity": null, "name": "Studiomie", "beds": null}},{"type": "Feature", "geometry": {"type":"Point","coordinates":[3.7385855,51.0596661]}, "properties": {"osm_id": 7986156577, "osm_type": "nodes", "tourism": "artwork", "rooms": null, "amenity": null, "name": null, "beds": null}},{"type": "Feature", "geometry": {"type":"Point","coordinates":[3.7388084,51.0597254]}, "properties": {"osm_id": 7986156578, "osm_type": "nodes", "tourism": "artwork", "rooms": null, "amenity": null, "name": null, "beds": null}},{"type": "Feature", "geometry": {"type":"Point","coordinates":[3.7381584,51.0611161]}, "properties": {"osm_id": 7986194386, "osm_type": "nodes", "tourism": "artwork", "rooms": null, "amenity": null, "name": null, "beds": null}},{"type": "Feature", "geometry": {"type":"Point","coordinates":[3.7334547,51.0630771]}, "properties": {"osm_id": 7988098874, "osm_type": "nodes", "tourism": "artwork", "rooms": null, "amenity": null, "name": null, "beds": null}},{"type": "Feature", "geometry": {"type":"Point","coordinates":[3.7327466,51.0667631]}, "properties": {"osm_id": 5856007887, "osm_type": "nodes", "tourism": null, "rooms": null, "amenity": "fast_food", "name": "Hola Food", "beds": null}},{"type": "Feature", "geometry": {"type":"Point","coordinates":[3.725968,51.060755]}, "properties": {"osm_id": 13038155968, "osm_type": "nodes", "tourism": null, "rooms": null, "amenity": "restaurant", "name": "Sultan's", "beds": null}},{"type": "Feature", "geometry": {"type":"Point","coordinates":[3.71613,51.0659102]}, "properties": {"osm_id": 12607304272, "osm_type": "nodes", "tourism": null, "rooms": null, "amenity": "restaurant", "name": "SOMM", "beds": null}},{"type": "Feature", "geometry": {"type":"Point","coordinates":[3.7299334,51.0689124]}, "properties": {"osm_id": 12339476222, "osm_type": "nodes", "tourism": "guest_house", "rooms": null, "amenity": null, "name": "FDS Cosy Studio", "beds": null}},{"type": "Feature", "geometry": {"type":"Point","coordinates":[3.7309581,51.0735578]}, "properties": {"osm_id": 3139795094, "osm_type": "nodes", "tourism": null, "rooms": null, "amenity": "bar", "name": "De Muide", "beds": null}},{"type": "Feature", "geometry": {"type":"Point","coordinates":[3.730668,51.0713223]}, "properties": {"osm_id": 10940010348, "osm_type": "nodes", "tourism": null, "rooms": null, "amenity": "fast_food", "name": "Pizza de Hoek/Aurelia", "beds": null}},{"type": "Feature", "geometry": {"type":"Point","coordinates":[3.7294001,51.0657845]}, "properties": {"osm_id": 5428846934, "osm_type": "nodes", "tourism": null, "rooms": null, "amenity": "restaurant", "name": "Amour", "beds": null}},{"type": "Feature", "geometry": {"type":"Point","coordinates":[3.7256676,51.0438175]}, "properties": {"osm_id": 12823556595, "osm_type": "nodes", "tourism": null, "rooms": null, "amenity": "restaurant", "name": "Little Happiness", "beds": null}},{"type": "Feature", "geometry": {"type":"Point","coordinates":[3.7265078,51.0441359]}, "properties": {"osm_id": 12702821007, "osm_type": "nodes", "tourism": null, "rooms": null, "amenity": "restaurant", "name": "Delilunch", "beds": null}},{"type": "Feature", "geometry": {"type":"Point","coordinates":[3.7243234,51.0438345]}, "properties": {"osm_id": 4228053291, "osm_type": "nodes", "tourism": null, "rooms": null, "amenity": "fast_food", "name": "'t Hoogtepunt", "beds": null}},{"type": "Feature", "geometry": {"type":"Point","coordinates":[3.72556,51.0415566]}, "properties": {"osm_id": 3817866462, "osm_type": "nodes", "tourism": null, "rooms": null, "amenity": "fast_food", "name": "Snack Tonton", "beds": null}},{"type": "Feature", "geometry": {"type":"Point","coordinates":[3.7254031,51.0409088]}, "properties": {"osm_id": 7020626409, "osm_type": "nodes", "tourism": null, "rooms": null, "amenity": "fast_food", "name": "Stefano's Place", "beds": null}},{"type": "Feature", "geometry": {"type":"Point","coordinates":[3.7255693,51.0413778]}, "properties": {"osm_id": 9355240924, "osm_type": "nodes", "tourism": null, "rooms": null, "amenity": "bar", "name": "The Corner", "beds": null}},{"type": "Feature", "geometry": {"type":"Point","coordinates":[3.7257034,51.0438565]}, "properties": {"osm_id": 1275923547, "osm_type": "nodes", "tourism": null, "rooms": null, "amenity": "pub", "name": "Krawietelke", "beds": null}},{"type": "Feature", "geometry": {"type":"Point","coordinates":[3.7253361,51.0421608]}, "properties": {"osm_id": 2441407152, "osm_type": "nodes", "tourism": null, "rooms": null, "amenity": "pub", "name": "De Kroon", "beds": null}},{"type": "Feature", "geometry": {"type":"Point","coordinates":[3.725587,51.0395797]}, "properties": {"osm_id": 6799991956, "osm_type": "nodes", "tourism": null, "rooms": null, "amenity": "bar", "name": "Tam-Tam", "beds": null}},{"type": "Feature", "geometry": {"type":"Point","coordinates":[3.7255045,51.0398731]}, "properties": {"osm_id": 6799991952, "osm_type": "nodes", "tourism": null, "rooms": null, "amenity": "pub", "name": "Pallieter", "beds": null}},{"type": "Feature", "geometry": {"type":"Point","coordinates":[3.7229981,51.0454825]}, "properties": {"osm_id": 1425064288, "osm_type": "nodes", "tourism": null, "rooms": null, "amenity": "restaurant", "name": "La Salita", "beds": null}},{"type": "Feature", "geometry": {"type":"Point","coordinates":[3.7268344,51.0463958]}, "properties": {"osm_id": 1804211330, "osm_type": "nodes", "tourism": null, "rooms": null, "amenity": "restaurant", "name": "La Rustica", "beds": null}},{"type": "Feature", "geometry": {"type":"Point","coordinates":[3.7226014,51.0460883]}, "properties": {"osm_id": 11992730153, "osm_type": "nodes", "tourism": null, "rooms": null, "amenity": "cafe", "name": "IzyCoffee", "beds": null}},{"type": "Feature", "geometry": {"type":"Point","coordinates":[3.7253984,51.0405694]}, "properties": {"osm_id": 12702645848, "osm_type": "nodes", "tourism": null, "rooms": null, "amenity": "fast_food", "name": "Frituur Oost", "beds": null}},{"type": "Feature", "geometry": {"type":"Point","coordinates":[3.7286982,51.0408188]}, "properties": {"osm_id": 13662736413, "osm_type": "nodes", "tourism": null, "rooms": null, "amenity": "cafe", "name": "Klub Kantien", "beds": null}},{"type": "Feature", "geometry": {"type":"Point","coordinates":[3.7524813,51.014701]}, "properties": {"osm_id": 9141384572, "osm_type": "nodes", "tourism": null, "rooms": null, "amenity": "restaurant", "name": "De Bergstraat", "beds": null}},{"type": "Feature", "geometry": {"type":"Point","coordinates":[3.7427485,51.0550546]}, "properties": {"osm_id": 12755180305, "osm_type": "nodes", "tourism": null, "rooms": null, "amenity": "restaurant", "name": "Alberte", "beds": null}},{"type": "Feature", "geometry": {"type":"Point","coordinates":[3.7471495,51.052684]}, "properties": {"osm_id": 6613025420, "osm_type": "nodes", "tourism": null, "rooms": null, "amenity": "fast_food", "name": "hatay Kebab", "beds": null}},{"type": "Feature", "geometry": {"type":"Point","coordinates":[3.7436494,51.0539239]}, "properties": {"osm_id": 12348852300, "osm_type": "nodes", "tourism": null, "rooms": null, "amenity": "restaurant", "name": "Dedeoglu", "beds": null}},{"type": "Feature", "geometry": {"type":"Point","coordinates":[3.7547548,51.0523434]}, "properties": {"osm_id": 8000422313, "osm_type": "nodes", "tourism": "artwork", "rooms": null, "amenity": null, "name": "Tintelun", "beds": null}},{"type": "Feature", "geometry": {"type":"Point","coordinates":[3.7467611,51.0529556]}, "properties": {"osm_id": 11516571366, "osm_type": "nodes", "tourism": null, "rooms": null, "amenity": "restaurant", "name": "Mevlana 42", "beds": null}},{"type": "Feature", "geometry": {"type":"Point","coordinates":[3.7457775,51.0531589]}, "properties": {"osm_id": 6613025410, "osm_type": "nodes", "tourism": null, "rooms": null, "amenity": "fast_food", "name": "Snack Sahin", "beds": null}},{"type": "Feature", "geometry": {"type":"Point","coordinates":[3.7246297,51.055513]}, "properties": {"osm_id": 7994724852, "osm_type": "nodes", "tourism": "artwork", "rooms": null, "amenity": null, "name": null, "beds": null}},{"type": "Feature", "geometry": {"type":"Point","coordinates":[3.7216658,51.0549867]}, "properties": {"osm_id": 1532794995, "osm_type": "nodes", "tourism": null, "rooms": null, "amenity": "restaurant", "name": "De kuip van Gent", "beds": null}},{"type": "Feature", "geometry": {"type":"Point","coordinates":[3.7233904,51.0545173]}, "properties": {"osm_id": 10892781656, "osm_type": "nodes", "tourism": null, "rooms": null, "amenity": "restaurant", "name": "Pho Saigon", "beds": null}},{"type": "Feature", "geometry": {"type":"Point","coordinates":[3.7212206,51.0551301]}, "properties": {"osm_id": 2617862001, "osm_type": "nodes", "tourism": null, "rooms": null, "amenity": "restaurant", "name": "De Witte Leeuw", "beds": null}},{"type": "Feature", "geometry": {"type":"Point","coordinates":[3.7230696,51.0547092]}, "properties": {"osm_id": 10892781655, "osm_type": "nodes", "tourism": null, "rooms": null, "amenity": "restaurant", "name": "Royal India", "beds": null}},{"type": "Feature", "geometry": {"type":"Point","coordinates":[3.721631,51.0565057]}, "properties": {"osm_id": 1381893761, "osm_type": "nodes", "tourism": null, "rooms": null, "amenity": "fast_food", "name": "'t Puntzakje", "beds": null}},{"type": "Feature", "geometry": {"type":"Point","coordinates":[3.7216394,51.0474939]}, "properties": {"osm_id": 6828974432, "osm_type": "nodes", "tourism": null, "rooms": null, "amenity": "restaurant", "name": "Komparto", "beds": null}},{"type": "Feature", "geometry": {"type":"Point","coordinates":[3.7237365,51.0531869]}, "properties": {"osm_id": 12148408793, "osm_type": "nodes", "tourism": null, "rooms": null, "amenity": "restaurant", "name": "Knol&Kool", "beds": null}},{"type": "Feature", "geometry": {"type":"Point","coordinates":[3.7258392,51.056142]}, "properties": {"osm_id": 12703297599, "osm_type": "nodes", "tourism": null, "rooms": null, "amenity": "cafe", "name": "Koffiebar 712", "beds": null}},{"type": "Feature", "geometry": {"type":"Point","coordinates":[3.7257344,51.0555664]}, "properties": {"osm_id": 10908013548, "osm_type": "nodes", "tourism": null, "rooms": null, "amenity": "restaurant", "name": "De Rave", "beds": null}},{"type": "Feature", "geometry": {"type":"Point","coordinates":[3.7188774,51.0500524]}, "properties": {"osm_id": 12391687086, "osm_type": "nodes", "tourism": "hotel", "rooms": null, "amenity": null, "name": "Hotel onderbergen", "beds": null}},{"type": "Feature", "geometry": {"type":"Point","coordinates":[3.7254944,51.0539661]}, "properties": {"osm_id": 1628067353, "osm_type": "nodes", "tourism": null, "rooms": null, "amenity": "restaurant", "name": "Bier Central", "beds": null}},{"type": "Feature", "geometry": {"type":"Point","coordinates":[3.7242466,51.0534721]}, "properties": {"osm_id": 968042315, "osm_type": "nodes", "tourism": null, "rooms": null, "amenity": "restaurant", "name": "Brasserie Passion", "beds": null}},{"type": "Feature", "geometry": {"type":"Point","coordinates":[3.7231742,51.0568282]}, "properties": {"osm_id": 4864729622, "osm_type": "nodes", "tourism": null, "rooms": null, "amenity": "bar", "name": "Barrazza", "beds": null}},{"type": "Feature", "geometry": {"type":"Point","coordinates":[3.7256508,51.0512947]}, "properties": {"osm_id": 11653847309, "osm_type": "nodes", "tourism": null, "rooms": null, "amenity": "cafe", "name": "IzyCoffee", "beds": null}},{"type": "Feature", "geometry": {"type":"Point","coordinates":[3.7243501,51.0550706]}, "properties": {"osm_id": 7994724837, "osm_type": "nodes", "tourism": "artwork", "rooms": null, "amenity": null, "name": null, "beds": null}},{"type": "Feature", "geometry": {"type":"Point","coordinates":[3.7246206,51.0557473]}, "properties": {"osm_id": 7994724861, "osm_type": "nodes", "tourism": "artwork", "rooms": null, "amenity": null, "name": null, "beds": null}},{"type": "Feature", "geometry": {"type":"Point","coordinates":[3.7247432,51.0559156]}, "properties": {"osm_id": 7994724870, "osm_type": "nodes", "tourism": "artwork", "rooms": null, "amenity": null, "name": null, "beds": null}},{"type": "Feature", "geometry": {"type":"Point","coordinates":[3.7255538,51.0514353]}, "properties": {"osm_id": 5191582345, "osm_type": "nodes", "tourism": null, "rooms": null, "amenity": "cafe", "name": "Pain & Compagnie", "beds": null}},{"type": "Feature", "geometry": {"type":"Point","coordinates":[3.7223192,51.054807]}, "properties": {"osm_id": 1536600694, "osm_type": "nodes", "tourism": null, "rooms": null, "amenity": "pub", "name": "De Maecht van Gent", "beds": null}},{"type": "Feature", "geometry": {"type":"Point","coordinates":[3.7197918,51.0516651]}, "properties": {"osm_id": 5734799246, "osm_type": "nodes", "tourism": null, "rooms": null, "amenity": "restaurant", "name": "Domestica", "beds": null}},{"type": "Feature", "geometry": {"type":"Point","coordinates":[3.7199527,51.0539582]}, "properties": {"osm_id": 2620549984, "osm_type": "nodes", "tourism": null, "rooms": null, "amenity": "restaurant", "name": "JinJiang", "beds": null}},{"type": "Feature", "geometry": {"type":"Point","coordinates":[3.7191195,51.0521608]}, "properties": {"osm_id": 4776502139, "osm_type": "nodes", "tourism": null, "rooms": null, "amenity": "restaurant", "name": "'t Oud Clooster", "beds": null}},{"type": "Feature", "geometry": {"type":"Point","coordinates":[3.7199286,51.0509362]}, "properties": {"osm_id": 6155773247, "osm_type": "nodes", "tourism": null, "rooms": null, "amenity": "pub", "name": "l'Apéro d'Oc", "beds": null}},{"type": "Feature", "geometry": {"type":"Point","coordinates":[3.7229796,51.0530511]}, "properties": {"osm_id": 11592816515, "osm_type": "nodes", "tourism": null, "rooms": null, "amenity": "cafe", "name": "8tea5", "beds": null}},{"type": "Feature", "geometry": {"type":"Point","coordinates":[3.7229894,51.0531027]}, "properties": {"osm_id": 7012018353, "osm_type": "nodes", "tourism": null, "rooms": null, "amenity": "restaurant", "name": "Asian Corner", "beds": null}},{"type": "Feature", "geometry": {"type":"Point","coordinates":[3.722045,51.0568077]}, "properties": {"osm_id": 11352130050, "osm_type": "nodes", "tourism": null, "rooms": null, "amenity": "bar", "name": "Wabi", "beds": null}},{"type": "Feature", "geometry": {"type":"Point","coordinates":[3.7166835,51.0531263]}, "properties": {"osm_id": 2400521710, "osm_type": "nodes", "tourism": "artwork", "rooms": null, "amenity": null, "name": null, "beds": null}},{"type": "Feature", "geometry": {"type":"Point","coordinates":[3.7217059,51.0567513]}, "properties": {"osm_id": 1212143937, "osm_type": "nodes", "tourism": null, "rooms": null, "amenity": "fast_food", "name": "Hawaiian Poké Bowl", "beds": null}},{"type": "Feature", "geometry": {"type":"Point","coordinates":[3.7203476,51.0517255]}, "properties": {"osm_id": 2546643705, "osm_type": "nodes", "tourism": null, "rooms": null, "amenity": "restaurant", "name": "Eat Love Pizza", "beds": null}},{"type": "Feature", "geometry": {"type":"Point","coordinates":[3.7233272,51.0545912]}, "properties": {"osm_id": 7142820246, "osm_type": "nodes", "tourism": null, "rooms": null, "amenity": "restaurant", "name": "Conchi's Peruvian Cuisine", "beds": null}},{"type": "Feature", "geometry": {"type":"Point","coordinates":[3.7248747,51.0525633]}, "properties": {"osm_id": 12315865312, "osm_type": "nodes", "tourism": null, "rooms": null, "amenity": "restaurant", "name": "Jus", "beds": null}},{"type": "Feature", "geometry": {"type":"Point","coordinates":[3.7246271,51.0531665]}, "properties": {"osm_id": 4893381291, "osm_type": "nodes", "tourism": null, "rooms": null, "amenity": "restaurant", "name": "Luxalad", "beds": null}},{"type": "Feature", "geometry": {"type":"Point","coordinates":[3.722927,51.0504388]}, "properties": {"osm_id": 12800541091, "osm_type": "nodes", "tourism": null, "rooms": null, "amenity": "restaurant", "name": "Cotee", "beds": null}},{"type": "Feature", "geometry": {"type":"Point","coordinates":[3.7338803,51.0503564]}, "properties": {"osm_id": 1628067364, "osm_type": "nodes", "tourism": null, "rooms": null, "amenity": "restaurant", "name": "Le piranha", "beds": null}},{"type": "Feature", "geometry": {"type":"Point","coordinates":[3.7271313,51.0487609]}, "properties": {"osm_id": 12737223395, "osm_type": "nodes", "tourism": "information", "rooms": null, "amenity": null, "name": "Minardschouwburg - Théatre Minard - Minard Theatre", "beds": null}},{"type": "Feature", "geometry": {"type":"Point","coordinates":[3.7261937,51.0534585]}, "properties": {"osm_id": 12830913043, "osm_type": "nodes", "tourism": null, "rooms": null, "amenity": "restaurant", "name": "Bridge brasserie", "beds": null}},{"type": "Feature", "geometry": {"type":"Point","coordinates":[3.7321176,51.0522499]}, "properties": {"osm_id": 12644173433, "osm_type": "nodes", "tourism": "hotel", "rooms": null, "amenity": null, "name": "Quartier Leonard", "beds": null}},{"type": "Feature", "geometry": {"type":"Point","coordinates":[3.7266832,51.0554251]}, "properties": {"osm_id": 11157749730, "osm_type": "nodes", "tourism": null, "rooms": null, "amenity": "bar", "name": "ONA", "beds": null}},{"type": "Feature", "geometry": {"type":"Point","coordinates":[3.7274589,51.0559797]}, "properties": {"osm_id": 3266030161, "osm_type": "nodes", "tourism": null, "rooms": null, "amenity": "fast_food", "name": "Sympa", "beds": null}},{"type": "Feature", "geometry": {"type":"Point","coordinates":[3.7278473,51.0503804]}, "properties": {"osm_id": 7992917500, "osm_type": "nodes", "tourism": "artwork", "rooms": null, "amenity": null, "name": null, "beds": null}},{"type": "Feature", "geometry": {"type":"Point","coordinates":[3.7297649,51.0504177]}, "properties": {"osm_id": 6138202026, "osm_type": "nodes", "tourism": null, "rooms": null, "amenity": "pub", "name": "De Gentenaar", "beds": null}},{"type": "Feature", "geometry": {"type":"Point","coordinates":[3.7340288,51.0567696]}, "properties": {"osm_id": 6942691396, "osm_type": "nodes", "tourism": null, "rooms": null, "amenity": "restaurant", "name": "De Casserolle", "beds": null}},{"type": "Feature", "geometry": {"type":"Point","coordinates":[3.7270714,51.0490439]}, "properties": {"osm_id": 2773666260, "osm_type": "nodes", "tourism": null, "rooms": null, "amenity": "restaurant", "name": "Pain Perdu", "beds": null}},{"type": "Feature", "geometry": {"type":"Point","coordinates":[3.7284095,51.0561811]}, "properties": {"osm_id": 5618349224, "osm_type": "nodes", "tourism": null, "rooms": null, "amenity": "cafe", "name": "Tante Paula", "beds": null}},{"type": "Feature", "geometry": {"type":"Point","coordinates":[3.7272124,51.0568854]}, "properties": {"osm_id": 1187133904, "osm_type": "nodes", "tourism": null, "rooms": null, "amenity": "fast_food", "name": "Layali Halab", "beds": null}},{"type": "Feature", "geometry": {"type":"Point","coordinates":[3.7280772,51.0558453]}, "properties": {"osm_id": 7771911221, "osm_type": "nodes", "tourism": null, "rooms": null, "amenity": "bar", "name": "Aap", "beds": null}},{"type": "Feature", "geometry": {"type":"Point","coordinates":[3.7316829,51.0486675]}, "properties": {"osm_id": 1628067355, "osm_type": "nodes", "tourism": null, "rooms": null, "amenity": "pub", "name": "Le Sud", "beds": null}},{"type": "Feature", "geometry": {"type":"Point","coordinates":[3.732082,51.0485141]}, "properties": {"osm_id": 12462615510, "osm_type": "nodes", "tourism": null, "rooms": null, "amenity": "bar", "name": "Velvet", "beds": null}},{"type": "Feature", "geometry": {"type":"Point","coordinates":[3.7266312,51.0492927]}, "properties": {"osm_id": 12598903572, "osm_type": "nodes", "tourism": null, "rooms": null, "amenity": "fast_food", "name": "O'Cheess Co", "beds": null}},{"type": "Feature", "geometry": {"type":"Point","coordinates":[3.7284378,51.0505667]}, "properties": {"osm_id": 10539853551, "osm_type": "nodes", "tourism": "hotel", "rooms": null, "amenity": null, "name": "Yalo Hotel", "beds": null}},{"type": "Feature", "geometry": {"type":"Point","coordinates":[3.7135252,51.0275194]}, "properties": {"osm_id": 2400530605, "osm_type": "nodes", "tourism": null, "rooms": null, "amenity": "restaurant", "name": "Lunch Garden", "beds": null}},{"type": "Feature", "geometry": {"type":"Point","coordinates":[3.7128787,51.0359143]}, "properties": {"osm_id": 5275465129, "osm_type": "nodes", "tourism": null, "rooms": null, "amenity": "restaurant", "name": "China Paleis", "beds": null}},{"type": "Feature", "geometry": {"type":"Point","coordinates":[3.7099064,51.036321]}, "properties": {"osm_id": 1598830944, "osm_type": "nodes", "tourism": null, "rooms": null, "amenity": "fast_food", "name": "Panos", "beds": null}},{"type": "Feature", "geometry": {"type":"Point","coordinates":[3.7129277,51.0370916]}, "properties": {"osm_id": 11303527497, "osm_type": "nodes", "tourism": null, "rooms": null, "amenity": "restaurant", "name": "Happy Thai", "beds": null}},{"type": "Feature", "geometry": {"type":"Point","coordinates":[3.7129689,51.0367853]}, "properties": {"osm_id": 1802837736, "osm_type": "nodes", "tourism": null, "rooms": null, "amenity": "fast_food", "name": "Beleg Van Gent", "beds": null}},{"type": "Feature", "geometry": {"type":"Point","coordinates":[3.7130515,51.0362869]}, "properties": {"osm_id": 3625606680, "osm_type": "nodes", "tourism": null, "rooms": null, "amenity": "fast_food", "name": "Paul's Boutique", "beds": null}},{"type": "Feature", "geometry": {"type":"Point","coordinates":[3.7367946,51.0390325]}, "properties": {"osm_id": 7993537782, "osm_type": "nodes", "tourism": "artwork", "rooms": null, "amenity": null, "name": null, "beds": null}},{"type": "Feature", "geometry": {"type":"Point","coordinates":[3.7350826,51.0395607]}, "properties": {"osm_id": 12919577075, "osm_type": "nodes", "tourism": "artwork", "rooms": null, "amenity": null, "name": "Thilap", "beds": null}},{"type": "Feature", "geometry": {"type":"Point","coordinates":[3.7445253,51.0491648]}, "properties": {"osm_id": 10298062025, "osm_type": "nodes", "tourism": "artwork", "rooms": null, "amenity": null, "name": null, "beds": null}},{"type": "Feature", "geometry": {"type":"Point","coordinates":[3.7449894,51.0431354]}, "properties": {"osm_id": 12862004672, "osm_type": "nodes", "tourism": "artwork", "rooms": null, "amenity": null, "name": null, "beds": null}},{"type": "Feature", "geometry": {"type":"Point","coordinates":[3.7462945,51.0470922]}, "properties": {"osm_id": 2225073637, "osm_type": "nodes", "tourism": null, "rooms": null, "amenity": "fast_food", "name": "Frituur Lily", "beds": null}},{"type": "Feature", "geometry": {"type":"Point","coordinates":[3.7394721,51.0419083]}, "properties": {"osm_id": 9278632522, "osm_type": "nodes", "tourism": null, "rooms": null, "amenity": "restaurant", "name": "Pizza Cesar", "beds": null}},{"type": "Feature", "geometry": {"type":"Point","coordinates":[3.7419064,51.0465808]}, "properties": {"osm_id": 3213420688, "osm_type": "nodes", "tourism": null, "rooms": null, "amenity": "pub", "name": "Monty", "beds": null}},{"type": "Feature", "geometry": {"type":"Point","coordinates":[3.7378823,51.0488028]}, "properties": {"osm_id": 7014925079, "osm_type": "nodes", "tourism": null, "rooms": null, "amenity": "fast_food", "name": "Breadfast", "beds": null}},{"type": "Feature", "geometry": {"type":"Point","coordinates":[3.7334634,51.0490532]}, "properties": {"osm_id": 6388961290, "osm_type": "nodes", "tourism": null, "rooms": null, "amenity": "cafe", "name": "Terrazza", "beds": null}},{"type": "Feature", "geometry": {"type":"Point","coordinates":[3.7331828,51.057096]}, "properties": {"osm_id": 6255570289, "osm_type": "nodes", "tourism": null, "rooms": null, "amenity": "fast_food", "name": "Noon", "beds": null}},{"type": "Feature", "geometry": {"type":"Point","coordinates":[3.7266853,51.037487]}, "properties": {"osm_id": 10965285113, "osm_type": "nodes", "tourism": null, "rooms": null, "amenity": "fast_food", "name": "Poke Sushi", "beds": null}},{"type": "Feature", "geometry": {"type":"Point","coordinates":[3.6985736,51.0895106]}, "properties": {"osm_id": 10154729468, "osm_type": "nodes", "tourism": "information", "rooms": null, "amenity": null, "name": null, "beds": null}},{"type": "Feature", "geometry": {"type":"Point","coordinates":[3.722468,51.0579325]}, "properties": {"osm_id": 2626377985, "osm_type": "nodes", "tourism": null, "rooms": null, "amenity": "restaurant", "name": "Amadeus", "beds": null}},{"type": "Feature", "geometry": {"type":"Point","coordinates":[3.7257701,51.0579448]}, "properties": {"osm_id": 12530031558, "osm_type": "nodes", "tourism": null, "rooms": null, "amenity": "bar", "name": "Little Red Rooster", "beds": null}},{"type": "Feature", "geometry": {"type":"Point","coordinates":[3.7300601,51.0592751]}, "properties": {"osm_id": 12363209411, "osm_type": "nodes", "tourism": null, "rooms": null, "amenity": "cafe", "name": "DreamCATchers", "beds": null}},{"type": "Feature", "geometry": {"type":"Point","coordinates":[3.724916,51.0621242]}, "properties": {"osm_id": 6440678401, "osm_type": "nodes", "tourism": null, "rooms": null, "amenity": "fast_food", "name": "Musa", "beds": null}},{"type": "Feature", "geometry": {"type":"Point","coordinates":[3.7338835,51.0641535]}, "properties": {"osm_id": 12374256309, "osm_type": "nodes", "tourism": null, "rooms": null, "amenity": "bar", "name": "Amo", "beds": null}},{"type": "Feature", "geometry": {"type":"Point","coordinates":[3.7252892,51.0631767]}, "properties": {"osm_id": 7157141492, "osm_type": "nodes", "tourism": "guest_house", "rooms": null, "amenity": null, "name": "Cosy room", "beds": null}},{"type": "Feature", "geometry": {"type":"Point","coordinates":[3.7245352,51.0585726]}, "properties": {"osm_id": 12323883648, "osm_type": "nodes", "tourism": null, "rooms": null, "amenity": "restaurant", "name": "Prince", "beds": null}},{"type": "Feature", "geometry": {"type":"Point","coordinates":[3.7289176,51.0645941]}, "properties": {"osm_id": 6853683393, "osm_type": "nodes", "tourism": null, "rooms": null, "amenity": "restaurant", "name": "Muday", "beds": null}},{"type": "Feature", "geometry": {"type":"Point","coordinates":[3.724388,51.0581231]}, "properties": {"osm_id": 4154773490, "osm_type": "nodes", "tourism": null, "rooms": null, "amenity": "restaurant", "name": "Panda", "beds": null}},{"type": "Feature", "geometry": {"type":"Point","coordinates":[3.7244014,51.0587921]}, "properties": {"osm_id": 11352130046, "osm_type": "nodes", "tourism": null, "rooms": null, "amenity": "restaurant", "name": "Taj Mahal", "beds": null}},{"type": "Feature", "geometry": {"type":"Point","coordinates":[3.7249104,51.0589652]}, "properties": {"osm_id": 9459740682, "osm_type": "nodes", "tourism": null, "rooms": null, "amenity": "bar", "name": "André Aperobar", "beds": null}},{"type": "Feature", "geometry": {"type":"Point","coordinates":[3.7151932,51.0595873]}, "properties": {"osm_id": 1914080748, "osm_type": "nodes", "tourism": "artwork", "rooms": null, "amenity": null, "name": "De stroppendrager", "beds": null}},{"type": "Feature", "geometry": {"type":"Point","coordinates":[3.7170895,51.0592044]}, "properties": {"osm_id": 10815352040, "osm_type": "nodes", "tourism": "information", "rooms": null, "amenity": null, "name": "Taptoe Feest", "beds": null}},{"type": "Feature", "geometry": {"type":"Point","coordinates":[3.7266008,51.06159]}, "properties": {"osm_id": 1579895326, "osm_type": "nodes", "tourism": null, "rooms": null, "amenity": "restaurant", "name": "Özgem", "beds": null}},{"type": "Feature", "geometry": {"type":"Point","coordinates":[3.7329399,51.0577781]}, "properties": {"osm_id": 4463413776, "osm_type": "nodes", "tourism": null, "rooms": null, "amenity": "restaurant", "name": "Publiek", "beds": null}},{"type": "Feature", "geometry": {"type":"Point","coordinates":[3.7266147,51.0613181]}, "properties": {"osm_id": 8911924546, "osm_type": "nodes", "tourism": null, "rooms": null, "amenity": "restaurant", "name": "Aperto Chiuso", "beds": null}},{"type": "Feature", "geometry": {"type":"Point","coordinates":[3.718696,51.0554303]}, "properties": {"osm_id": 10294044911, "osm_type": "nodes", "tourism": "hotel", "rooms": "17", "amenity": null, "name": "City Garden rooms", "beds": null}},{"type": "Feature", "geometry": {"type":"Point","coordinates":[3.707249,51.0534174]}, "properties": {"osm_id": 6404585904, "osm_type": "nodes", "tourism": null, "rooms": null, "amenity": "fast_food", "name": "Cafetaria Coupure", "beds": null}},{"type": "Feature", "geometry": {"type":"Point","coordinates":[3.7136199,51.0548744]}, "properties": {"osm_id": 6983068056, "osm_type": "nodes", "tourism": null, "rooms": null, "amenity": "restaurant", "name": "A food affair", "beds": null}},{"type": "Feature", "geometry": {"type":"Point","coordinates":[3.7169362,51.0513666]}, "properties": {"osm_id": 11808037060, "osm_type": "nodes", "tourism": null, "rooms": null, "amenity": "fast_food", "name": "Parnassus", "beds": null}},{"type": "Feature", "geometry": {"type":"Point","coordinates":[3.7124047,51.0552314]}, "properties": {"osm_id": 6900569885, "osm_type": "nodes", "tourism": null, "rooms": null, "amenity": "restaurant", "name": "Door 73", "beds": null}},{"type": "Feature", "geometry": {"type":"Point","coordinates":[3.7179457,51.0549446]}, "properties": {"osm_id": 3842784240, "osm_type": "nodes", "tourism": "hotel", "rooms": null, "amenity": null, "name": "Hotel Erasmus", "beds": null}},{"type": "Feature", "geometry": {"type":"Point","coordinates":[3.6941334,51.0641072]}, "properties": {"osm_id": 12435769167, "osm_type": "nodes", "tourism": null, "rooms": null, "amenity": "fast_food", "name": "De Frietschap", "beds": null}},{"type": "Feature", "geometry": {"type":"Point","coordinates":[3.7186366,51.0414194]}, "properties": {"osm_id": 11687618612, "osm_type": "nodes", "tourism": null, "rooms": null, "amenity": "fast_food", "name": "'t Stokbruudje", "beds": null}},{"type": "Feature", "geometry": {"type":"Point","coordinates":[3.7185214,51.0413299]}, "properties": {"osm_id": 11028543743, "osm_type": "nodes", "tourism": null, "rooms": null, "amenity": "restaurant", "name": "Kruidtuin", "beds": null}},{"type": "Feature", "geometry": {"type":"Point","coordinates":[3.7113327,51.0465538]}, "properties": {"osm_id": 9323440549, "osm_type": "nodes", "tourism": "artwork", "rooms": null, "amenity": null, "name": null, "beds": null}},{"type": "Feature", "geometry": {"type":"Point","coordinates":[3.7252653,51.0604439]}, "properties": {"osm_id": 13040061417, "osm_type": "nodes", "tourism": null, "rooms": null, "amenity": "restaurant", "name": "Lujain", "beds": null}},{"type": "Feature", "geometry": {"type":"Point","coordinates":[3.7086722,51.0573315]}, "properties": {"osm_id": 6900564092, "osm_type": "nodes", "tourism": null, "rooms": null, "amenity": "fast_food", "name": "Mina", "beds": null}},{"type": "Feature", "geometry": {"type":"Point","coordinates":[3.7256122,51.0542717]}, "properties": {"osm_id": 11352130039, "osm_type": "nodes", "tourism": null, "rooms": null, "amenity": "pub", "name": "Artevelde Brouwerij", "beds": null}},{"type": "Feature", "geometry": {"type":"Point","coordinates":[3.7423643,51.0578335]}, "properties": {"osm_id": 12084967318, "osm_type": "nodes", "tourism": null, "rooms": null, "amenity": "restaurant", "name": "Alard", "beds": null}},{"type": "Feature", "geometry": {"type":"Point","coordinates":[3.7226749,51.0570504]}, "properties": {"osm_id": 12837310303, "osm_type": "nodes", "tourism": "gallery", "rooms": null, "amenity": null, "name": "Down To Art", "beds": null}},{"type": "Feature", "geometry": {"type":"Point","coordinates":[3.7414015,51.0570539]}, "properties": {"osm_id": 13077554798, "osm_type": "nodes", "tourism": "information", "rooms": null, "amenity": "mobility_hub", "name": "Gent Dampoort", "beds": null}},{"type": "Feature", "geometry": {"type":"Point","coordinates":[3.7297701,51.0554607]}, "properties": {"osm_id": 13321962201, "osm_type": "nodes", "tourism": "hotel", "rooms": null, "amenity": null, "name": "Ganda Rooms & Suites", "beds": null}},{"type": "Feature", "geometry": {"type":"Point","coordinates":[3.7095596,51.0646006]}, "properties": {"osm_id": 13426764364, "osm_type": "nodes", "tourism": null, "rooms": null, "amenity": "cafe", "name": "Happy Kidzz", "beds": null}},{"type": "Feature", "geometry": {"type":"Point","coordinates":[3.728311,51.050402]}, "properties": {"osm_id": 12542341837, "osm_type": "nodes", "tourism": null, "rooms": null, "amenity": "restaurant", "name": "Yeti", "beds": null}},{"type": "Feature", "geometry": {"type":"Point","coordinates":[3.7243057,51.0586658]}, "properties": {"osm_id": 12323650406, "osm_type": "nodes", "tourism": null, "rooms": null, "amenity": "restaurant", "name": "Sushi Palace", "beds": null}},{"type": "Feature", "geometry": {"type":"Point","coordinates":[3.6936396,51.0557721]}, "properties": {"osm_id": 13788019779, "osm_type": "nodes", "tourism": null, "rooms": null, "amenity": "restaurant", "name": "Okawa Sushi", "beds": null}},{"type": "Feature", "geometry": {"type":"Point","coordinates":[3.7098181,51.0569807]}, "properties": {"osm_id": 6918690787, "osm_type": "nodes", "tourism": "artwork", "rooms": null, "amenity": null, "name": null, "beds": null}},{"type": "Feature", "geometry": {"type":"Point","coordinates":[3.7424342,51.0554535]}, "properties": {"osm_id": 11415862783, "osm_type": "nodes", "tourism": null, "rooms": null, "amenity": "restaurant", "name": "Restaurant Panda", "beds": null}},{"type": "Feature", "geometry": {"type":"Point","coordinates":[3.742997,51.0477627]}, "properties": {"osm_id": 12779274036, "osm_type": "nodes", "tourism": "artwork", "rooms": null, "amenity": null, "name": null, "beds": null}},{"type": "Feature", "geometry": {"type":"Point","coordinates":[3.7259757,51.0566253]}, "properties": {"osm_id": 13061736704, "osm_type": "nodes", "tourism": "information", "rooms": null, "amenity": null, "name": "Ons Huis / Het Toreken / Standbeeld van Jacob van Artevelde - Ons Huis / Toreken / Statue de Jacob van Artevelde - Ons Huis / Toreken / Statue of Jacob van Artevelde", "beds": null}},{"type": "Feature", "geometry": {"type":"Point","coordinates":[3.7323086,51.0488961]}, "properties": {"osm_id": 13506445999, "osm_type": "nodes", "tourism": null, "rooms": null, "amenity": "restaurant", "name": "Axum", "beds": null}},{"type": "Feature", "geometry": {"type":"Point","coordinates":[3.7303436,51.0572609]}, "properties": {"osm_id": 6942598586, "osm_type": "nodes", "tourism": null, "rooms": null, "amenity": "restaurant", "name": "Mazaya", "beds": null}},{"type": "Feature", "geometry": {"type":"Point","coordinates":[3.7259356,51.0574126]}, "properties": {"osm_id": 1186357678, "osm_type": "nodes", "tourism": null, "rooms": null, "amenity": "bar", "name": "Maria", "beds": null}},{"type": "Feature", "geometry": {"type":"Point","coordinates":[3.729185,51.0503366]}, "properties": {"osm_id": 12804094905, "osm_type": "nodes", "tourism": null, "rooms": null, "amenity": "fast_food", "name": "Vief", "beds": null}},{"type": "Feature", "geometry": {"type":"Point","coordinates":[3.7279351,51.0581932]}, "properties": {"osm_id": 13787925225, "osm_type": "nodes", "tourism": null, "rooms": null, "amenity": "restaurant", "name": "The Mistress", "beds": null}},{"type": "Feature", "geometry": {"type":"Point","coordinates":[3.7218871,51.0655991]}, "properties": {"osm_id": 7358137560, "osm_type": "nodes", "tourism": "hotel", "rooms": null, "amenity": null, "name": "Den Briel", "beds": null}},{"type": "Feature", "geometry": {"type":"Point","coordinates":[3.7232511,51.0741873]}, "properties": {"osm_id": 10127493290, "osm_type": "nodes", "tourism": null, "rooms": null, "amenity": "restaurant", "name": "Gaston", "beds": null}},{"type": "Feature", "geometry": {"type":"Point","coordinates":[3.7264061,51.0715262]}, "properties": {"osm_id": 7060940342, "osm_type": "nodes", "tourism": null, "rooms": null, "amenity": "restaurant", "name": "Spazio24", "beds": null}},{"type": "Feature", "geometry": {"type":"Point","coordinates":[3.7369509,51.0320496]}, "properties": {"osm_id": 10225203263, "osm_type": "nodes", "tourism": "information", "rooms": null, "amenity": null, "name": null, "beds": null}},{"type": "Feature", "geometry": {"type":"Point","coordinates":[3.7253747,51.0435443]}, "properties": {"osm_id": 474342771, "osm_type": "nodes", "tourism": null, "rooms": null, "amenity": "bar", "name": "Bar Coecoe", "beds": null}},{"type": "Feature", "geometry": {"type":"Point","coordinates":[3.7396231,51.0464725]}, "properties": {"osm_id": 7993096906, "osm_type": "nodes", "tourism": "artwork", "rooms": null, "amenity": null, "name": null, "beds": null}},{"type": "Feature", "geometry": {"type":"Point","coordinates":[3.727279,51.0483848]}, "properties": {"osm_id": 4718292171, "osm_type": "nodes", "tourism": null, "rooms": null, "amenity": "restaurant", "name": "Babú", "beds": null}},{"type": "Feature", "geometry": {"type":"Point","coordinates":[3.7428888,51.0517944]}, "properties": {"osm_id": 12205058304, "osm_type": "nodes", "tourism": "artwork", "rooms": null, "amenity": null, "name": null, "beds": null}},{"type": "Feature", "geometry": {"type":"Point","coordinates":[3.7433935,51.0375603]}, "properties": {"osm_id": 4456452819, "osm_type": "nodes", "tourism": null, "rooms": null, "amenity": "cafe", "name": "Rokkebolle", "beds": null}},{"type": "Feature", "geometry": {"type":"Point","coordinates":[3.7480114,51.0266112]}, "properties": {"osm_id": 9141401375, "osm_type": "nodes", "tourism": null, "rooms": null, "amenity": "pub", "name": "Taverne Belle Vue", "beds": null}},{"type": "Feature", "geometry": {"type":"Point","coordinates":[3.7466903,51.0386251]}, "properties": {"osm_id": 8957993750, "osm_type": "nodes", "tourism": null, "rooms": null, "amenity": "restaurant", "name": "Tabouleh", "beds": null}},{"type": "Feature", "geometry": {"type":"Point","coordinates":[3.7547731,51.0298542]}, "properties": {"osm_id": 8000168182, "osm_type": "nodes", "tourism": "artwork", "rooms": null, "amenity": null, "name": null, "beds": null}},{"type": "Feature", "geometry": {"type":"Point","coordinates":[3.7550706,51.0304602]}, "properties": {"osm_id": 8000198686, "osm_type": "nodes", "tourism": "artwork", "rooms": null, "amenity": null, "name": null, "beds": null}},{"type": "Feature", "geometry": {"type":"Point","coordinates":[3.755191,51.0308857]}, "properties": {"osm_id": 8000198689, "osm_type": "nodes", "tourism": "artwork", "rooms": null, "amenity": null, "name": null, "beds": null}},{"type": "Feature", "geometry": {"type":"Point","coordinates":[3.7551332,51.0301426]}, "properties": {"osm_id": 8000198693, "osm_type": "nodes", "tourism": "artwork", "rooms": null, "amenity": null, "name": null, "beds": null}},{"type": "Feature", "geometry": {"type":"Point","coordinates":[3.7554712,51.0308581]}, "properties": {"osm_id": 8000198698, "osm_type": "nodes", "tourism": "artwork", "rooms": null, "amenity": null, "name": "Maani", "beds": null}},{"type": "Feature", "geometry": {"type":"Point","coordinates":[3.7555532,51.0303337]}, "properties": {"osm_id": 8000198706, "osm_type": "nodes", "tourism": "artwork", "rooms": null, "amenity": null, "name": null, "beds": null}},{"type": "Feature", "geometry": {"type":"Point","coordinates":[3.7554921,51.0304413]}, "properties": {"osm_id": 8000198711, "osm_type": "nodes", "tourism": "artwork", "rooms": null, "amenity": null, "name": null, "beds": null}},{"type": "Feature", "geometry": {"type":"Point","coordinates":[3.7553531,51.0310694]}, "properties": {"osm_id": 8000198723, "osm_type": "nodes", "tourism": "artwork", "rooms": null, "amenity": null, "name": "Pxase", "beds": null}},{"type": "Feature", "geometry": {"type":"Point","coordinates":[3.754816,51.0524101]}, "properties": {"osm_id": 8000422312, "osm_type": "nodes", "tourism": "artwork", "rooms": null, "amenity": null, "name": "Tintelun", "beds": null}},{"type": "Feature", "geometry": {"type":"Point","coordinates":[3.748278,51.0380987]}, "properties": {"osm_id": 13147629701, "osm_type": "nodes", "tourism": null, "rooms": null, "amenity": "fast_food", "name": "HAP & CHAP", "beds": null}},{"type": "Feature", "geometry": {"type":"Point","coordinates":[3.7452784,51.0374929]}, "properties": {"osm_id": 8954829276, "osm_type": "nodes", "tourism": "artwork", "rooms": null, "amenity": null, "name": null, "beds": null}},{"type": "Feature", "geometry": {"type":"Point","coordinates":[3.741296,51.0375629]}, "properties": {"osm_id": 8944368522, "osm_type": "nodes", "tourism": null, "rooms": null, "amenity": "restaurant", "name": "Achturenhuis", "beds": null}},{"type": "Feature", "geometry": {"type":"Point","coordinates":[3.7430563,51.0375491]}, "properties": {"osm_id": 8944368519, "osm_type": "nodes", "tourism": null, "rooms": null, "amenity": "pub", "name": "The Britannia", "beds": null}},{"type": "Feature", "geometry": {"type":"Point","coordinates":[3.7463178,51.0388041]}, "properties": {"osm_id": 8957993749, "osm_type": "nodes", "tourism": null, "rooms": null, "amenity": "fast_food", "name": "Pizza Stop", "beds": null}},{"type": "Feature", "geometry": {"type":"Point","coordinates":[3.7474201,51.037901]}, "properties": {"osm_id": 8957993754, "osm_type": "nodes", "tourism": null, "rooms": null, "amenity": "restaurant", "name": "Ichiban", "beds": null}},{"type": "Feature", "geometry": {"type":"Point","coordinates":[3.7553316,51.0303772]}, "properties": {"osm_id": 8000198687, "osm_type": "nodes", "tourism": "artwork", "rooms": null, "amenity": null, "name": "Burt Cokain", "beds": null}},{"type": "Feature", "geometry": {"type":"Point","coordinates":[3.7421693,51.0376078]}, "properties": {"osm_id": 8957993748, "osm_type": "nodes", "tourism": null, "rooms": null, "amenity": "restaurant", "name": "Grade", "beds": null}},{"type": "Feature", "geometry": {"type":"Point","coordinates":[3.7416919,51.0367937]}, "properties": {"osm_id": 8944368321, "osm_type": "nodes", "tourism": null, "rooms": null, "amenity": "fast_food", "name": "Pizza Masters", "beds": null}},{"type": "Feature", "geometry": {"type":"Point","coordinates":[3.7539533,51.0412403]}, "properties": {"osm_id": 3967087159, "osm_type": "nodes", "tourism": null, "rooms": null, "amenity": "restaurant", "name": "'t Spoorke", "beds": null}},{"type": "Feature", "geometry": {"type":"Point","coordinates":[3.7009156,51.0314139]}, "properties": {"osm_id": 9420690482, "osm_type": "nodes", "tourism": null, "rooms": null, "amenity": "restaurant", "name": "Resto B", "beds": null}},{"type": "Feature", "geometry": {"type":"Point","coordinates":[3.6995244,51.0522735]}, "properties": {"osm_id": 7825335032, "osm_type": "nodes", "tourism": null, "rooms": null, "amenity": "fast_food", "name": "Chefdag", "beds": null}},{"type": "Feature", "geometry": {"type":"Point","coordinates":[3.7037377,51.0473197]}, "properties": {"osm_id": 7628196641, "osm_type": "nodes", "tourism": null, "rooms": null, "amenity": "restaurant", "name": "Kantien", "beds": null}},{"type": "Feature", "geometry": {"type":"Point","coordinates":[3.6936877,51.0569113]}, "properties": {"osm_id": 4158261701, "osm_type": "nodes", "tourism": null, "rooms": null, "amenity": "fast_food", "name": "De Frietschap", "beds": null}},{"type": "Feature", "geometry": {"type":"Point","coordinates":[3.7479917,51.060254]}, "properties": {"osm_id": 7085959385, "osm_type": "nodes", "tourism": null, "rooms": null, "amenity": "restaurant", "name": "Open Wok", "beds": null}},{"type": "Feature", "geometry": {"type":"Point","coordinates":[3.7470923,51.0528671]}, "properties": {"osm_id": 6613025421, "osm_type": "nodes", "tourism": null, "rooms": null, "amenity": "pub", "name": "Çukur", "beds": null}},{"type": "Feature", "geometry": {"type":"Point","coordinates":[3.7472468,51.0604401]}, "properties": {"osm_id": 6172836687, "osm_type": "nodes", "tourism": null, "rooms": null, "amenity": "restaurant", "name": "Rustika", "beds": null}},{"type": "Feature", "geometry": {"type":"Point","coordinates":[3.7466046,51.0506363]}, "properties": {"osm_id": 6492357885, "osm_type": "nodes", "tourism": "attraction", "rooms": null, "amenity": null, "name": "Wasserij Gent", "beds": null}},{"type": "Feature", "geometry": {"type":"Point","coordinates":[3.7469076,51.0489145]}, "properties": {"osm_id": 2969278062, "osm_type": "nodes", "tourism": "artwork", "rooms": null, "amenity": null, "name": "Skaters", "beds": null}},{"type": "Feature", "geometry": {"type":"Point","coordinates":[3.74699,51.0762123]}, "properties": {"osm_id": 7973858288, "osm_type": "nodes", "tourism": "artwork", "rooms": null, "amenity": null, "name": null, "beds": null}},{"type": "Feature", "geometry": {"type":"Point","coordinates":[3.7505302,51.0629988]}, "properties": {"osm_id": 9230878888, "osm_type": "nodes", "tourism": null, "rooms": null, "amenity": "fast_food", "name": "Meerakker", "beds": null}},{"type": "Feature", "geometry": {"type":"Point","coordinates":[3.7507625,51.0644656]}, "properties": {"osm_id": 5817131929, "osm_type": "nodes", "tourism": "apartment", "rooms": null, "amenity": null, "name": "Touristflat Dewulf", "beds": null}},{"type": "Feature", "geometry": {"type":"Point","coordinates":[3.747785,51.0604715]}, "properties": {"osm_id": 8808808099, "osm_type": "nodes", "tourism": null, "rooms": null, "amenity": "fast_food", "name": "Asmin", "beds": null}},{"type": "Feature", "geometry": {"type":"Point","coordinates":[3.7360854,51.0684327]}, "properties": {"osm_id": 7986233800, "osm_type": "nodes", "tourism": "artwork", "rooms": null, "amenity": null, "name": null, "beds": null}},{"type": "Feature", "geometry": {"type":"Point","coordinates":[3.7359246,51.0722488]}, "properties": {"osm_id": 7986233829, "osm_type": "nodes", "tourism": "artwork", "rooms": null, "amenity": null, "name": null, "beds": null}},{"type": "Feature", "geometry": {"type":"Point","coordinates":[3.7478941,51.0608902]}, "properties": {"osm_id": 6434031888, "osm_type": "nodes", "tourism": null, "rooms": null, "amenity": "restaurant", "name": "De Mokke", "beds": null}},{"type": "Feature", "geometry": {"type":"Point","coordinates":[3.7517635,51.0625393]}, "properties": {"osm_id": 9854049759, "osm_type": "nodes", "tourism": null, "rooms": null, "amenity": "fast_food", "name": "'t5hoekske", "beds": null}},{"type": "Feature", "geometry": {"type":"Point","coordinates":[3.7029828,51.0537973]}, "properties": {"osm_id": 6898562789, "osm_type": "nodes", "tourism": "information", "rooms": null, "amenity": null, "name": null, "beds": null}},{"type": "Feature", "geometry": {"type":"Point","coordinates":[3.699531,51.0534696]}, "properties": {"osm_id": 6916433687, "osm_type": "nodes", "tourism": null, "rooms": null, "amenity": "restaurant", "name": "Pecaso", "beds": null}},{"type": "Feature", "geometry": {"type":"Point","coordinates":[3.7563926,51.0711335]}, "properties": {"osm_id": 6185459886, "osm_type": "nodes", "tourism": "artwork", "rooms": null, "amenity": null, "name": "Dr. Ferdinand Augustijn Snellaert", "beds": null}},{"type": "Feature", "geometry": {"type":"Point","coordinates":[3.7164439,51.0502051]}, "properties": {"osm_id": 12866803216, "osm_type": "nodes", "tourism": null, "rooms": null, "amenity": "bar", "name": "Het Zwarte Gat", "beds": null}},{"type": "Feature", "geometry": {"type":"Point","coordinates":[3.7141184,51.0560368]}, "properties": {"osm_id": 6092406662, "osm_type": "nodes", "tourism": null, "rooms": null, "amenity": "restaurant", "name": "Ter Burg", "beds": null}},{"type": "Feature", "geometry": {"type":"Point","coordinates":[3.716325,51.0501043]}, "properties": {"osm_id": 11596286258, "osm_type": "nodes", "tourism": null, "rooms": null, "amenity": "bar", "name": "Amaro", "beds": null}},{"type": "Feature", "geometry": {"type":"Point","coordinates":[3.7099734,51.060534]}, "properties": {"osm_id": 11599759775, "osm_type": "nodes", "tourism": null, "rooms": null, "amenity": "pub", "name": "De Limiet", "beds": null}},{"type": "Feature", "geometry": {"type":"Point","coordinates":[3.715011,51.0597997]}, "properties": {"osm_id": 13249845726, "osm_type": "nodes", "tourism": "information", "rooms": null, "amenity": null, "name": null, "beds": null}},{"type": "Feature", "geometry": {"type":"Point","coordinates":[3.7280999,51.0478846]}, "properties": {"osm_id": 6109164788, "osm_type": "nodes", "tourism": "artwork", "rooms": null, "amenity": null, "name": "graffiti skateboarder", "beds": null}},{"type": "Feature", "geometry": {"type":"Point","coordinates":[3.7211811,51.0488089]}, "properties": {"osm_id": 12697052302, "osm_type": "nodes", "tourism": null, "rooms": null, "amenity": "cafe", "name": "aura.", "beds": null}},{"type": "Feature", "geometry": {"type":"Point","coordinates":[3.7212853,51.0484105]},